Date Last Researched,Country/Area,Project Name,Phase Name,Project Name in Local Language / Script,Other Name(s),Capacity (MW),Installation Type,Status,Start year,Retired year,Operator,Operator Name in Local Language / Script,Owner,Owner Name in Local Language / Script,Hydrogen,Latitude,Longitude,Location accuracy,City,"Local area (taluk, county)","Major area (prefecture, district)",State/Province,Subregion,Region,GEM location ID,GEM phase ID,Other IDs (location),Other IDs (unit/phase),Wiki URL
2024/02/22,Albania,Dropull wind farm,--,,,50,Onshore,announced,,,,,EU Green Energy,,,39.9406,20.2478,approximate,,,,,Southern Europe,Europe,L100000919283,G100000923766,,,https://www.gem.wiki/Dropull_wind_farm
2024/02/22,Albania,Karaburun wind farm (Albania),1,,,10,Offshore mount unknown,announced,,,,,BRD Energy,,,40.4052,19.4337,approximate,,,,,Southern Europe,Europe,L100000919286,G100000923769,,,https://www.gem.wiki/Karaburun_wind_farm_(Albania)
2024/02/22,Albania,Karaburun wind farm (Albania),2,,,10,Offshore mount unknown,announced,,,,,GMT Investment,,,40.4052,19.4337,approximate,,,,,Southern Europe,Europe,L100000919286,G100000923770,,,https://www.gem.wiki/Karaburun_wind_farm_(Albania)
2024/02/22,Albania,Karaburun wind farm (Albania),3,,,10,Offshore mount unknown,announced,,,,,GRS Energy,,,40.4052,19.4337,approximate,,,,,Southern Europe,Europe,L100000919286,G100000923771,,,https://www.gem.wiki/Karaburun_wind_farm_(Albania)
2024/02/22,Albania,Karaburun wind farm (Albania),4,,,10,Offshore mount unknown,announced,,,,,MGN Energy,,,40.4052,19.4337,approximate,,,,,Southern Europe,Europe,L100000919286,G100000923772,,,https://www.gem.wiki/Karaburun_wind_farm_(Albania)
2024/02/22,Albania,Karaburun wind farm (Albania),5,,,10,Offshore mount unknown,announced,,,,,ORT Investment,,,40.4052,19.4337,approximate,,,,,Southern Europe,Europe,L100000919286,G100000923773,,,https://www.gem.wiki/Karaburun_wind_farm_(Albania)
2024/02/28,Bosnia and Herzegovina,Glamoč wind farm,1,,,80,Onshore,announced,,,,,Wild Wind,,,44.0593,16.7704,approximate,,,,,Southern Europe,Europe,L100001003346,G100001003835,,,https://www.gem.wiki/Glamoč_wind_farm
2024/11/22,Bosnia and Herzegovina,Ivovik wind farm,--,,,84,Onshore,operating,2024,,,,VE Ivovik doo,,,43.7825,17.1302,exact,Gradina,Tomislavgrad,,,Southern Europe,Europe,L100000915565,G100000919248,,,https://www.gem.wiki/Ivovik_wind_farm
2023/03/21,Bosnia and Herzegovina,Jelovaca wind farm,--,,,36,Onshore,operating,2019,,,,FL Wind,,,43.7509,17.1452,exact,,,Herzeg-Bosnia Canton,Federation of Bosnia and Herzegovina,Southern Europe,Europe,L100000913891,G100000917247,,,https://www.gem.wiki/Jelovaca_wind_farm
2025/01/02,Bosnia and Herzegovina,Mesihovina wind farm,--,,,51,Onshore,operating,2018,,Elektroprivreda HZHB Mostar,,Elektroprivreda HZHB Mostar dd,,,43.6142,17.2328,exact,Mesihovina,,,Federation of Bosnia and Herzegovina,Southern Europe,Europe,L100000915104,G100000918702,,,https://www.gem.wiki/Mesihovina_wind_farm
2024/02/28,Bosnia and Herzegovina,Planik wind farm,--,,,40,Onshore,announced,,,,,Elektroprivreda Republike Srpske AD,,,42.877,18.4288,approximate,,,,,Southern Europe,Europe,L100000919343,G100000923839,,,https://www.gem.wiki/Planik_wind_farm
2023/03/20,Bosnia and Herzegovina,Podvelezje wind farm,1,,Podvelezje-2 wind farm (Phase 1),48,Onshore,operating,2021,,Elektroprivreda Bosne i Hercegovine (EPBiH),,Elektroprivreda Bosne i Hercegovine (EPBiH),,,43.3436,17.8626,exact,Mostar,City of Mostar,Herzegovina-Neretva Canton,Federation of Bosnia and Herzegovina,Southern Europe,Europe,L100000912498,G100000918225,,,https://www.gem.wiki/Podvelezje_wind_farm
2024/02/28,Bosnia and Herzegovina,Ruđer Bošković wind farm,--,,Ruđer Bošković Energy Park,60,Onshore,announced,,,,,Ventus Industria doo,,,42.8874,17.9669,approximate,,,,,Southern Europe,Europe,L100000919344,G100000923840,,,https://www.gem.wiki/Ruđer_Bošković_wind_farm
2024/02/28,Bosnia and Herzegovina,Skadimovac wind farm,1,,,110,Onshore,announced,,,,,RWP Vitorog,,,44.0608,16.8541,approximate,,,,,Southern Europe,Europe,L100001003347,G100001003836,,,https://www.gem.wiki/Skadimovac_wind_farm
2021/08/25,Bulgaria,Balchik wind farm,--,,,10,Onshore,operating,2011,,,,KI-KELAG International GmbH,,,43.7419,28.1347,exact,,Dobrich,,,Eastern Europe,Europe,L100000907721,G100000910388,,,https://www.gem.wiki/Balchik_wind_farm
2023/01/13,Bulgaria,Evn Bulgarevo wind farm,1,,Bulgarevo,50,Onshore,operating,2010,,EVN-Enertrag Kavarna,,Enertrag Ltd ; Energie Versorgung Niederosterreich AG,,,43.4221,28.3779,exact,,Dobrich,,,Eastern Europe,Europe,L100000913257,G100000918476,,,https://www.gem.wiki/Evn_Bulgarevo_wind_farm
2023/01/13,Bulgaria,Evn Bulgarevo wind farm,2,,Bulgarevo,30,Onshore,operating,2010,,EVN-Enertrag Kavarna,,Enertrag Ltd ; Energie Versorgung Niederosterreich AG,,,43.4221,28.3779,exact,,Dobrich,,,Eastern Europe,Europe,L100000913257,G100000916496,,,https://www.gem.wiki/Evn_Bulgarevo_wind_farm
2024/03/16,Bulgaria,Gorichane wind farm,--,,,40,Onshore,announced,,,,,Taaleri Energia,,,43.525,28.4579,approximate,Gorichane,,,,Eastern Europe,Europe,L100001004035,G100001004691,,,https://www.gem.wiki/Gorichane_wind_farm
2021/08/25,Bulgaria,Hrabrovo wind farm,--,,,14,Onshore,operating,2012,,ERG,,Lukerg Renew GmbH,,,43.1365,27.3848,exact,,Varna,,,Eastern Europe,Europe,L100000909900,G100000912695,,,https://www.gem.wiki/Hrabrovo_wind_farm
2021/08/25,Bulgaria,Kaliakra Cape wind farm,--,,,35,Onshore,operating,2008,,Mitsubishi Power Systems Europe; Inos; Mitsubishi Heavy Industries,三菱重工業株式会社,Mitsubishi Heavy Industries Ltd,三菱重工業株式会社,,43.3917,28.4497,exact,,Dobrich,,,Eastern Europe,Europe,L100000913791,G100000917135,,,https://www.gem.wiki/Kaliakra_Cape_wind_farm
2023/01/13,Bulgaria,Kamen Bryag (Enel) wind farm,--,,,21,Onshore,operating,2009,,MET Black Sea Wind Parks Ltd.,,MET Group,,,43.4333,28.339,approximate,Kavarna,,,Dobrich,Eastern Europe,Europe,L100000911868,G100000914898,,,https://www.gem.wiki/Kamen_Bryag_(Enel)_wind_farm
2021/08/25,Bulgaria,Kardam wind farm,--,,,12,Onshore,operating,2011,,Terna Energy,Τερνα Ενεργειακη Ανωνυμη Βιομηχανικη Εμπορικη Τεχνικη Εταιρεια Α Ε,"GEK TERNA Holdings, Real Estate, Construction SA",,,43.6483,27.5673,approximate,Karapelit,,,Dobrich,Eastern Europe,Europe,L100000908985,G100000911715,,,https://www.gem.wiki/Kardam_wind_farm
2023/01/13,Bulgaria,Karnobat Wind Park,--,,"Karnobat, Kralimarkova Stupka Wind Farm",13,Onshore,operating,2010,,Stream Invest Holding,,Stream Invest Holding AG,,,43.7419,28.1347,exact,,Dobrich,,,Eastern Europe,Europe,L100000909473,G100000912228,,,https://www.gem.wiki/Karnobat_Wind_Park
2021/08/25,Bulgaria,Krapelit wind farm,--,,,18,Onshore,operating,2010,,Italgen,,Italgen,,,43.6325,27.5441,exact,,Dobrich,,,Eastern Europe,Europe,L100000911116,G100000914058,,,https://www.gem.wiki/Krapelit_wind_farm
2021/08/25,Bulgaria,Krupen wind farm,--,,,12,Onshore,operating,2010,,Alerion Energie Rinnovabili,,European Energy A/S ; Alerion Energie Rinnovabili,,,43.5594,28.2449,exact,,Dobrich,,,Eastern Europe,Europe,L100000909006,G100000911736,,,https://www.gem.wiki/Krupen_wind_farm
2021/08/25,Bulgaria,Long Man Wind Park,--,,,10,Onshore,operating,2008,,Long Man Wind Energy,,Long Man Wind Energy,,,43.4333,28.339,approximate,Kavarna,,,Dobrich,Eastern Europe,Europe,L100000908002,G100000910687,,,https://www.gem.wiki/Long_Man_Wind_Park
2021/08/25,Bulgaria,Mogilishte-Zapad wind farm,--,,,16,Onshore,operating,2009,,Inwind Sp; Verbund,,Inwind Sp Ltd,,,43.4615,28.3252,exact,,Dobrich,,,Eastern Europe,Europe,L100000910597,G100000913474,,,https://www.gem.wiki/Mogilishte-Zapad_wind_farm
2024/03/16,Bulgaria,Prolez wind farm,--,,,40,Onshore,announced,,,,,Taaleri Energia,,,43.5681,28.4566,approximate,Prolez,,,,Eastern Europe,Europe,L100001004036,G100001004692,,,https://www.gem.wiki/Prolez_wind_farm
2021/08/25,Bulgaria,Saint Nikola wind farm,--,,"Sveti Nikola, Kavarna NW",156,Onshore,operating,2010,,AES,,AES Corp,,,43.3855,28.447,exact,,,,Dobrich,Eastern Europe,Europe,L100000915908,G100000919655,World Resources Institute: WRI1008062,,https://www.gem.wiki/Saint_Nikola_wind_farm
2023/01/13,Bulgaria,Shabla wind farm,--,,Kavarna Shabla,21,Onshore,operating,2010,,MET Black Sea Wind Parks Ltd.,,MET Group,,,43.6057,28.5098,approximate,Shabla,,,Dobrich,Eastern Europe,Europe,L100000911940,G100000914983,,,https://www.gem.wiki/Shabla_wind_farm
2021/08/25,Bulgaria,Suvorovo wind farm,--,,,60,Onshore,operating,2011,,Eolica Bulgaria,,MET Group,,,43.375,27.5897,exact,,Varna,,,Eastern Europe,Europe,L100000915303,G100000918933,,,https://www.gem.wiki/Suvorovo_wind_farm
2021/08/25,Bulgaria,Tcherga wind farm,--,,"Kavarna W, Kavarna E",40,Onshore,operating,2011,,Lukerg Renew; ERG,,ERG SpA,,,43.401,28.1901,approximate,Kavarna,,,Dobrich,Eastern Europe,Europe,L100000914264,G100000917680,,,https://www.gem.wiki/Tcherga_wind_farm
2024/03/16,Bulgaria,Tenevo wind farm,--,,,250,Onshore,announced,,,,,Eurowind Energy A/S; Renalfa IPP,,,42.3384,26.5321,approximate,Tenevo,,,,Eastern Europe,Europe,L100001004034,G100001004690,,,https://www.gem.wiki/Tenevo_wind_farm
2024/03/16,Bulgaria,Vetrocom wind farm,1,,,25,Onshore,operating,2010,,,,Renalfa IPP,,,42.739,25.4325,exact,,Stara Zagora,,,Eastern Europe,Europe,L100000912175,G100000915829,,,https://www.gem.wiki/Vetrocom_wind_farm
2024/03/16,Bulgaria,Vetrocom wind farm,2,,,25,Onshore,operating,2011,,Alpiq,,Renalfa IPP,,,42.739,25.4325,exact,,Stara Zagora,,,Eastern Europe,Europe,L100000912175,G100000915830,,,https://www.gem.wiki/Vetrocom_wind_farm
2024/03/16,Bulgaria,Vetrocom wind farm,3,,,22,Onshore,operating,2012,,,,Renalfa IPP,,,42.739,25.4325,exact,,Stara Zagora,,,Eastern Europe,Europe,L100000912175,G100000915254,,,https://www.gem.wiki/Vetrocom_wind_farm
2021/08/25,Bulgaria,Vranino wind farm,--,,,18,Onshore,operating,2012,,Terna Energy,Τερνα Ενεργειακη Ανωνυμη Βιομηχανικη Εμπορικη Τεχνικη Εταιρεια Α Ε,"GEK TERNA Holdings, Real Estate, Construction SA",,,43.5266,28.3072,approximate,Vranino,,,Dobrich,Eastern Europe,Europe,L100000911275,G100000914236,,,https://www.gem.wiki/Vranino_wind_farm
2021/07/23,Croatia,Crno Brdo wind farm,--,,Danilo Biranj Wind Farm,11,Onshore,operating,2011,,Leitwind,,Orient Green Power,,,43.7078,16.0084,exact,,Šibenik-Knin County,,,Southern Europe,Europe,L100000908417,G100000911117,,,https://www.gem.wiki/Crno_Brdo_wind_farm
2023/03/22,Croatia,Danilo wind farm,--,,,44,Onshore,operating,2013,,Enercon Partner Konzept (EPK); RP Global,,Professio Energia dd,,,43.7101,16.0676,exact,,Šibenik-Knin County,,,Southern Europe,Europe,L100000914458,G100000917914,,,https://www.gem.wiki/Danilo_wind_farm
2021/07/23,Croatia,Glunca wind farm,--,,,21,Onshore,operating,2017,,,,HSE Invest doo; Petrol Group,,,43.6399,16.0736,exact,,Šibenik-Knin County,,,Southern Europe,Europe,L100000911855,G100000914882,,,https://www.gem.wiki/Glunca_wind_farm
2021/07/23,Croatia,Jasenice wind farm,--,,,12,Onshore,operating,2019,,WPD Windmanager,,KI-KELAG International GmbH,,,44.2214,15.6638,exact,,Zadar County,,,Southern Europe,Europe,L100000908976,G100000911706,,,https://www.gem.wiki/Jasenice_wind_farm
2021/07/23,Croatia,Jelinak wind farm,--,,,30,Onshore,operating,2013,,Acciona Energía,,Acciona Energía SAU,,,43.5539,16.1645,exact,,Split-Dalmatia County,,,Southern Europe,Europe,L100000913278,G100000916522,,,https://www.gem.wiki/Jelinak_wind_farm
2021/07/23,Croatia,Kamensko-Vostane wind farm,--,,"Vostane-Kamensko Wind Farm, ST1-1-ST1-2 Wind Farm",42,Onshore,operating,,,,,Dalekovod dd,,,43.6319,16.8839,exact,,Split-Dalmatia County,,,Southern Europe,Europe,L100000914351,G100000917788,,,https://www.gem.wiki/Kamensko-Vostane_wind_farm
2021/07/23,Croatia,Katuni wind farm,--,,,34,Onshore,operating,2017,,WPD Windmanager,,WPD AG,達德能源股份有限公司,,43.4782,16.9057,exact,,Split-Dalmatia County,,,Southern Europe,Europe,L100000913702,G100000917033,,,https://www.gem.wiki/Katuni_wind_farm
2021/07/23,Croatia,Kom-Orjak-Greda wind farm,--,,Orjak Wind Farm,10,Onshore,operating,2018,,Vjetroelektrana Orjak,,KELAG,,,43.4702,16.8157,exact,,Split-Dalmatia County,,,Southern Europe,Europe,L100000907941,G100000910617,,,https://www.gem.wiki/Kom-Orjak-Greda_wind_farm
2021/07/23,Croatia,Korlat wind farm,--,,,58,Onshore,operating,2020,,Nordex,,Hrvatska elektroprivreda dd,,,44.0893,15.5903,exact,,Zadar County,,,Southern Europe,Europe,L100000915236,G100000918857,,,https://www.gem.wiki/Korlat_wind_farm
2023/03/23,Croatia,KRS-Padene wind farm,--,Krš-Pađene,Padjene Wind Farm,130,Onshore,operating,2021,,,,Lager Group,,,44.0649,16.1004,exact,,Šibenik-Knin County,,,Southern Europe,Europe,L100000915858,G100000919599,,,https://www.gem.wiki/KRS-Padene_wind_farm
2024/01/19,Croatia,Lički Medvjed wind farm,--,,VE Lički Medvjed,425,Onshore,announced,2026,,,,Enercon; Green Trust,,,44.8746,15.2217,approximate,,,,,Southern Europe,Europe,L100000919350,G100000923846,,,https://www.gem.wiki/Lički_Medvjed_wind_farm
2023/03/22,Croatia,Ljubac wind farm,--,,,30,Onshore,operating,2022,,Petrol Group,,Petrol Group,,,44.0099,16.1558,exact,Knin,,,Dalmatia,Southern Europe,Europe,L100000913310,G100000916560,,,https://www.gem.wiki/Ljubac_wind_farm
2021/07/23,Croatia,Lukovac wind farm,--,,,49,Onshore,operating,,,,,Enlight Renewable Energy,,,43.5382,16.9202,exact,,Split-Dalmatia County,,,Southern Europe,Europe,L100000914801,G100000918312,,,https://www.gem.wiki/Lukovac_wind_farm
2021/07/23,Croatia,Obrovac-Zelengrad wind farm,1,,,42,Onshore,operating,2015,,Vestas Wind Systems,,EnerCap Capital Partners; Crescent Capital Group LP,,,44.1571,15.669,exact,,Zadar County,,,Southern Europe,Europe,L100000909133,G100000917821,,,https://www.gem.wiki/Obrovac-Zelengrad_wind_farm
2021/07/23,Croatia,Ogorje wind farm,--,,,42,Onshore,operating,2015,,,,Achema Group,,,43.7177,16.5332,exact,,Split-Dalmatia County,,,Southern Europe,Europe,L100000914382,G100000917822,,,https://www.gem.wiki/Ogorje_wind_farm
2021/07/23,Croatia,Orlice wind farm,--,,,10,Onshore,operating,2009,,WPD Windmanager,,WPD AG,達德能源股份有限公司,,43.6382,16.0223,exact,,Šibenik-Knin County,,,Southern Europe,Europe,L100000908080,G100000910768,,,https://www.gem.wiki/Orlice_wind_farm
2021/07/23,Croatia,Pometeno Brdo wind farm,--,,,15,Onshore,operating,2012,,Končar Group,,Končar Group,,,43.6092,16.4749,exact,,Split-Dalmatia County,,,Southern Europe,Europe,L100000910350,G100000913195,,,https://www.gem.wiki/Pometeno_Brdo_wind_farm
2021/07/23,Croatia,Ponikve wind farm,--,,,37,Onshore,operating,2013,,WPD Windmanager,,WPD AG,達德能源股份有限公司,,42.8623,17.606,exact,,Dubrovnik-Neretva County,,,Southern Europe,Europe,L100000914004,G100000917378,,,https://www.gem.wiki/Ponikve_wind_farm
2023/03/22,Croatia,Rudine wind farm,--,,,34,Onshore,operating,2016,,General Electric,,Professio Energia dd,,,42.8237,17.799,exact,,Dubrovnik-Neretva County,,,Southern Europe,Europe,L100000913728,G100000917062,,,https://www.gem.wiki/Rudine_wind_farm
2023/03/22,Croatia,Senj (Norinco) wind farm,--,,,156,Onshore,operating,2021,,Norinco International Cooperation,,Norinco International Cooperation Ltd,,,45.0367,15.0256,exact,,Lika-Senj County,,,Southern Europe,Europe,L100000915909,G100000919656,,,https://www.gem.wiki/Senj_(Norinco)_wind_farm
2021/07/23,Croatia,Senj (Wallenborn) wind farm,1,,"Vratarusa Wind Farm (Phase 1), Vratarusa Wind Farm 2 (Phase 2)",42,Onshore,operating,2009,,Ereda,,Wallenborn Bora GmbH,,,45.0456,14.9323,exact,,Lika-Senj County,,,Southern Europe,Europe,L100000912520,G100000917840,,,https://www.gem.wiki/Senj_(Wallenborn)_wind_farm
2021/07/23,Croatia,Sibenik-Knin wind farm,--,,,14,Onshore,operating,,,,,,,,43.9281,16.1038,approximate,,Sibenik-Knin,,Dalmatia,Southern Europe,Europe,L100000910012,G100000912824,,,https://www.gem.wiki/Sibenik-Knin_wind_farm
2021/07/23,Croatia,Trtar-Krtolin wind farm,--,,,11,Onshore,operating,2006,,WPD Windmanager,,WPD AG,達德能源股份有限公司,,43.7531,15.9677,exact,Dubrava kod Šibenika,Šibenik-Knin County,,,Southern Europe,Europe,L100000908534,G100000911239,,,https://www.gem.wiki/Trtar-Krtolin_wind_farm
2025/01/02,Croatia,Visoka wind farm,1,,,56,Onshore,announced,,,,,ENCRO doo,,,43.7038,16.6396,approximate,,,,,Southern Europe,Europe,L100001000479,G100001000743,,,https://www.gem.wiki/Visoka_wind_farm
2021/07/23,Croatia,Zadar 6 wind farm,6,,,44,Onshore,operating,2017,,Porzana-ENCRO,,Postak doo,,,44.2659,16.0519,exact,,,,,Southern Europe,Europe,L100000914495,G100000917955,,,https://www.gem.wiki/Zadar_6_wind_farm
2021/07/23,Croatia,Zadar wind farm,2,,"Bruska Wind Farm, VE ZD2 Wind Farm (Phase 2), VE ZD3 Wind Farm (Phase 3)",18,Onshore,operating,2012,,,,EKO; Dalekovod dd,,,44.1079,15.7126,exact,,Zadar County,,,Southern Europe,Europe,L100000911293,G100000914254,,,https://www.gem.wiki/Zadar_wind_farm
2021/07/23,Croatia,Zadar wind farm,3,,"Bruska Wind Farm, VE ZD2 Wind Farm (Phase 2), VE ZD3 Wind Farm (Phase 3)",18,Onshore,operating,2012,,,,EKO; Dalekovod dd,,,44.0686,15.7809,exact,,Zadar County,,,Southern Europe,Europe,L100000911293,G100000914255,,,https://www.gem.wiki/Zadar_wind_farm
2024/03/20,Greece,Abelia Platanakia wind farm,--,Αμπελια - Πλατανακια,Ampelia,10.8,Onshore,operating,2021,,,,Volterra SA,Volterra Δουκας Μ.Α.Ε.,,38.4291,23.4243,exact,Municipal Unit of Thebes,Regional Unit of Boeotia,Central Greece,Thessaly and Central Greece,Southern Europe,Europe,L100000908354,G100000911051,RAE: ΑΔ-02414,RAE: 32719,https://www.gem.wiki/Abelia_Platanakia_wind_farm
2024/03/20,Greece,Achladion Wind Park,--,,Crete Achladia,10,Onshore,operating,1999,,,,,,,35.1548,26.0566,exact,Sitia Municipal Unit,Lasithi Regional Unit,Region of Crete,Region of Crete,Southern Europe,Europe,L100000909670,G100000912447,RAE: ΑΔ-00039,RAE: 42646,https://www.gem.wiki/Achladion_Wind_Park
2024/03/20,Greece,Achladitsa wind farm,--,Αχλαδιτσα,Interphoton Achaditsa,18,Onshore,operating,2020,,,,InterPhoton,Interphoton Εκμεταλλευση Ακινητων Ανωνυμη Εταιρεια,,38.2391,23.1848,exact,,Regional Unit of Boeotia,Central Greece,Thessaly and Central Greece,Southern Europe,Europe,L100000910974,G100000913895,RAE: ΑΔ-03158,RAE: 41550,https://www.gem.wiki/Achladitsa_wind_farm
2024/03/20,Greece,Achladotopos Gkoura Loutsa wind farm,--,Αχλαδοτοπος Γκουρα Λουτσα,Achladotopos,27.2,Onshore,operating,2019,,,,Eren Hellas,Eren Ελλας,,38.171,24.3005,exact,,Euboea Regional Unit,Central Greece,Thessaly and Central Greece,Southern Europe,Europe,L100000912744,G100000915892,RAE: ΑΔ-00650,RAE: 42028,https://www.gem.wiki/Achladotopos_Gkoura_Loutsa_wind_farm
2024/03/20,Greece,Aderes wind farm,1A&2,Αδερες,,14,Onshore,operating,2016,,,,National Energy Holdings,New Ne Solar Developments Five 5 Μονοπροσωπη Ανωνυμη Εταιρεια,,37.5041,23.2838,exact,Municipal Unit of Troizinia,Regional Unit of Islands,Attica,Attica,Southern Europe,Europe,L100000909784,G100000912569,RAE: ΑΔ-00872,RAE: 34895,https://www.gem.wiki/Aderes_wind_farm
2024/03/20,Greece,Adirrio wind farm,--,Αντιρριο,,20,Onshore,operating,2019,,,,,,,38.3674,21.7316,exact,Municipal Unit of Antirrio,Aetolia-Acarnania Regional Unit,Western Greece,"Peloponnese, Western Greece and the Ionian",Southern Europe,Europe,L100000911469,G100000914449,RAE: ΑΔ-00186,RAE: 40370,https://www.gem.wiki/Adirrio_wind_farm
2024/04/21,Greece,Aedoni (Karestias Eevoias) wind farm,--,Αηδονι,Karystia wind project,18,Onshore,operating,2023,,,,Terna Energy,Τερνα Ενεργειακη Ανωνυμη Βιομηχανικη Εμπορικη Τεχνικη Εταιρεια Α Ε,,38.0358,24.5423,exact,,Euboea Regional Unit,Central Greece,Thessaly and Central Greece,Southern Europe,Europe,L100000910976,G100000913897,RAE: ΑΔ-01267,RAE: 37514,https://www.gem.wiki/Aedoni_(Karestias_Eevoias)_wind_farm
2024/04/21,Greece,Aeras 2 wind farm,--,Αερας 2,"Karditsa, Mouzaki Karditsa",27.6,Onshore,operating,2023,,,,Public Power Corporation of Greece (PPC),Δεη Ανανεωσιμες Αε,,39.3667,21.5684,exact,,Karditsa Regional Unit,Thessaly,Thessaly and Central Greece,Southern Europe,Europe,L100000912974,G100000916169,RAE: ΑΔ-00790,RAE: 38669,https://www.gem.wiki/Aeras_2_wind_farm
2024/03/20,Greece,Aetos Kakoraiika wind farm,--,Αετος - Κακοραιικα,"Aetos, Fokida 2",23,Onshore,operating,2010,,Aetos Wind Energy,Αιολικο Παρκο Αετος Μονοπροσωπη Ανωνυμη Ενεργειακη Εταιρεια,EDF Renewables Greece,Edf Renewables Hellas Μονοπροσωπη Α.Ε,,38.4323,22.2732,exact,Municipal Unit of Galaxidi,Regional Unit of Phocis,Central Greece,Thessaly and Central Greece,Southern Europe,Europe,L100000912188,G100000915268,RAE: ΑΔ-00803,RAE: 40575,https://www.gem.wiki/Aetos_Kakoraiika_wind_farm
2024/03/20,Greece,Agnadia Isoma wind farm,--,Αγναντια-Ισωμα-Θαμνοτοπος,Kellas Wind,43.2,Onshore,operating,2023,,,,Teforto Holdings Ltd,,,40.8148,21.6818,exact,,Florina Regional Unit,Western Macedonia,Epirus and Western Macedonia,Southern Europe,Europe,L100000914443,G100000917897,RAE: ΑΔ-01749,RAE: 42384,https://www.gem.wiki/Agnadia_Isoma_wind_farm
2024/03/20,Greece,Agriachladia wind farm,--,Αγριαχλαδια,"Agriahladia, Wild Pears, Agriahladia-Mesokipi",24,Onshore,operating,2020,,Energy Dystion Euboea,Ενεργειακη Δυστιων Ευβοιας Μ.Α.Ε.,Terna Energy,Τερνα Ενεργειακη Ανωνυμη Βιομηχανικη Εμπορικη Τεχνικη Εταιρεια Α Ε,,38.3934,24.1599,exact,,Euboea Regional Unit,Central Greece,Thessaly and Central Greece,Southern Europe,Europe,L100000912157,G100000915233,RAE: ΑΔ-00419,RAE: 41481,https://www.gem.wiki/Agriachladia_wind_farm
2024/03/20,Greece,Alogomandria Mavrovouni wind farm,1,Αλογομανδρια -Μαυροβουνι,Alogomandria,20,Onshore,operating,2009,,,,unknown ; PPC Renewables SA (PPCR) ; EDF Renewables Greece,Edf Renewables Hellas Μονοπροσωπη Α.Ε,,38.544,23.1331,exact,,Regional Unit of Boeotia,Central Greece,Thessaly and Central Greece,Southern Europe,Europe,L100000908352,G100000911049,RAE: ΑΔ-00578,RAE: 40058,https://www.gem.wiki/Alogomandria_Mavrovouni_wind_farm
2024/03/20,Greece,Alogorache wind farm,--,Αλογοραχη,Alogorachi,17,Onshore,operating,2006,,,,Rokas Aeoliki North Hellas II Ave,Ροκας Αιολικη Βορειος Ελλας Ιι Αβεε,,39.0417,22.5938,exact,,Regional Unit of Magnesia,Thessaly,Thessaly and Central Greece,Southern Europe,Europe,L100000910782,G100000913678,RAE: ΑΔ-00224,RAE: 40060,https://www.gem.wiki/Alogorache_wind_farm
2024/03/20,Greece,Amygdalitsa wind farm,--,Αμυγδαλιτσα,,12,Onshore,operating,2018,,,,Delta Technical Group,Δέλτα Τεχνική Α.Ε.,,37.0912,21.7584,exact,,Messenia Regional Unit,Peloponnese Region,"Peloponnese, Western Greece and the Ionian",Southern Europe,Europe,L100000908718,G100000911432,RAE: ΑΔ-01995,RAE: 36900,https://www.gem.wiki/Amygdalitsa_wind_farm
2024/03/20,Greece,Anatole wind farm,--,Ανατολη,Kafireas,16.1,Onshore,operating,2019,,,,Enel Green Power Greece SA,Enel Green Power Hellas A.E.,,38.1191,24.5406,exact,,Euboea Regional Unit,Central Greece,Thessaly and Central Greece,Southern Europe,Europe,L100000910689,G100000913579,RAE: ΑΔ-01258,RAE: 40246,https://www.gem.wiki/Anatole_wind_farm
2025/01/07,Greece,Anatoliko Askio Magoula wind farm,--,Ανατολικο Ασκιο – Μαγουλα,,27,Onshore,operating,2024,,,,Valorem,,,40.4092,21.5745,exact,,Kozani Regional Unit,Western Macedonia,Epirus and Western Macedonia,Southern Europe,Europe,L100000912876,G100000916051,RAE: ΑΔ-02378,RAE: 36888,https://www.gem.wiki/Anatoliko_Askio_Magoula_wind_farm
2024/03/20,Greece,Antia wind farm,A1,Μαυρομιχαλη - Μυρτια Μεσοχωριων,"Ayios Vasileios Megale Rache wind farm (Phase A1), Mavromichale Myrtia Mesochorion wind farm (Phase A2), Aspre Rache Misochoria wind farm (Phase B)",12.6,Onshore,operating,1999,,,,Rokas Aeoliki North Hellas II Ave,Ροκας Αιολικη Βορειος Ελλας Ιι Αβεε,,38.0498,24.5736,exact,,Euboea Regional Unit,Central Greece,Thessaly and Central Greece,Southern Europe,Europe,L100000908570,G100000912219,"RAE: ΑΔ-00335,RAE: ΑΔ-00076,RAE: ΑΔ-00097",RAE: 40290,https://www.gem.wiki/Antia_wind_farm
2024/03/20,Greece,Antia wind farm,A2,Μαυρομιχαλη - Μυρτια Μεσοχωριων,"Ayios Vasileios Megale Rache wind farm (Phase A1), Mavromichale Myrtia Mesochorion wind farm (Phase A2), Aspre Rache Misochoria wind farm (Phase B)",11.4,Onshore,operating,2000,,,,Rokas Aeoliki North Hellas II Ave,Ροκας Αιολικη Βορειος Ελλας Ιι Αβεε,,38.2565,24.2012,exact,,Euboea Regional Unit,Central Greece,Thessaly and Central Greece,Southern Europe,Europe,L100000908570,G100000911275,"RAE: ΑΔ-00335,RAE: ΑΔ-00076,RAE: ΑΔ-00097",RAE: 40293,https://www.gem.wiki/Antia_wind_farm
2024/03/20,Greece,Antia wind farm,B,Μαυρομιχαλη - Μυρτια Μεσοχωριων,"Ayios Vasileios Megale Rache wind farm (Phase A1), Mavromichale Myrtia Mesochorion wind farm (Phase A2), Aspre Rache Misochoria wind farm (Phase B)",12.6,Onshore,operating,2000,,,,Rokas Aeoliki North Hellas II Ave,Ροκας Αιολικη Βορειος Ελλας Ιι Αβεε,,38.0419,24.5788,exact,,Euboea Regional Unit,Central Greece,Thessaly and Central Greece,Southern Europe,Europe,L100000908570,G100000912220,"RAE: ΑΔ-00335,RAE: ΑΔ-00076,RAE: ΑΔ-00097",RAE: 40289,https://www.gem.wiki/Antia_wind_farm
2024/03/20,Greece,Arkadia Wind Park,--,Αιολικά Πάρκα Αρκαδίας,"Tripolis, Skyritida",16.2,Onshore,operating,2007,,,,Eunice Energy Group,,,37.3855,22.3684,exact,,Arcadia Regional Unit,Peloponnese Region,"Peloponnese, Western Greece and the Ionian",Southern Europe,Europe,L100000908583,G100000911288,RAE: ΑΔ-00045,RAE: 40325,https://www.gem.wiki/Arkadia_Wind_Park
2024/03/20,Greece,Arkadika Meltemia wind farm,--,Αρκαδικά Μελτέμια,Tripolis II,43.7,Onshore,operating,2007,,,,Eunice Energy Group,,,37.396,22.3551,exact,,Arcadia Regional Unit,Peloponnese Region,"Peloponnese, Western Greece and the Ionian",Southern Europe,Europe,L100000914451,G100000917905,RAE: ΑΔ-00044,RAE: 40928,https://www.gem.wiki/Arkadika_Meltemia_wind_farm
2024/03/20,Greece,Artikias Tsouni wind farm,--,"Τσουνι, Αρτικιας, Βιγλας",,30,Onshore,announced,,,,,Terna Energy,Τερνα Ενεργειακη Ανωνυμη Βιομηχανικη Εμπορικη Τεχνικη Εταιρεια Α Ε,,35.3514,24.3795,exact,,Rethymno Regional Unit,Region of Crete,Region of Crete,Southern Europe,Europe,L100000913215,G100000916450,RAE: Γ-05081,RAE: 35753,https://www.gem.wiki/Artikias_Tsouni_wind_farm
2024/03/20,Greece,Askio 3 wind farm,--,Ασκιο ΙII,Askio-II&III,50.4,Onshore,operating,2022,,,,Rokas Aeoliki North Hellas II Ave,Ροκας Αιολικη Βορειος Ελλας Ιι Αβεε,,40.345,21.606,exact,,Kozani Regional Unit,Western Macedonia,Epirus and Western Macedonia,Southern Europe,Europe,L100000914850,G100000918386,RAE: ΑΔ-03082,RAE: 41419,https://www.gem.wiki/Askio_3_wind_farm
2024/03/20,Greece,Askio wind farm,"1, Anatoliko, Maestros, East","Ανατολικο Ασκιο Μαεστρος, Ασκιο","Sakio Dytiko (Phases Dytiko, West), West Askio (Phases Dytiko, West), Askio Anatoliko (Phases Anatoliko, Maestros, East), East Askio (Phases Anatoliko, Maestros, East)",36.6,Onshore,operating,2019,,,,Ellaktor SA,Ελλακτωρ Α.Ε.,,40.389,21.5653,exact,,Kozani Regional Unit,Western Macedonia,Epirus and Western Macedonia,Southern Europe,Europe,L100000913964,G100000917330,"RAE: ΑΔ-02397,RAE: ΑΔ-02396",RAE: 40589,https://www.gem.wiki/Askio_wind_farm
2024/03/20,Greece,Askio wind farm,"2, Dytiko, West","Δυτικο Ασκιο, Ασκιο","Sakio Dytiko (Phases Dytiko, West), West Askio (Phases Dytiko, West), Askio Anatoliko (Phases Anatoliko, Maestros, East), East Askio (Phases Anatoliko, Maestros, East)",38,Onshore,operating,2023,,,,RES Wind SA,ΑΝΕΜΟΣ RES ΑΝΩΝΥΜΗ ΕΤΑΙΡΕΙΑ,,40.3993,21.5401,exact,,Kozani Regional Unit,Western Macedonia,Epirus and Western Macedonia,Southern Europe,Europe,L100000913964,G100000917698,"RAE: ΑΔ-02397,RAE: ΑΔ-02396",RAE: 40588,https://www.gem.wiki/Askio_wind_farm
2024/03/20,Greece,Aspre Petra wind farm,--,Ασπρη Πετρα,Aspri Petra,19.8,Onshore,operating,2003,,Enel Green Power,,Enel Green Power Greece SA,Enel Green Power Hellas A.E.,,41.1628,25.8683,exact,,Rodopi Regional Unit,Eastern Macedonia and Thrace,Macedonia and Thrace,Southern Europe,Europe,L100000911444,G100000914424,RAE: ΑΔ-00103,RAE: 40229,https://www.gem.wiki/Aspre_Petra_wind_farm
2024/03/20,Greece,Asprochomata wind farm,--,Ασπροχωματα,Boreas Beotia,14.6,Onshore,operating,2007,,,,Voreas Energeiaki SA,Βορεας Ενεργειακη Αε,,38.4524,22.7216,exact,,Regional Unit of Boeotia,Central Greece,Thessaly and Central Greece,Southern Europe,Europe,L100000910134,G100000912957,RAE: ΑΔ-00774,RAE: 40057,https://www.gem.wiki/Asprochomata_wind_farm
2024/03/20,Greece,Asprovouni (Ellaktor) wind farm,--,Ασπροβουνι,,20.7,Onshore,operating,2012,,,,Ellaktor SA,Ελλακτωρ Α.Ε.,,37.5511,23.2422,exact,Municipal Unit of Troizinia,Regional Unit of Islands,Attica,Attica,Southern Europe,Europe,L100000911478,G100000914458,RAE: ΑΔ-00823,RAE: 33915,https://www.gem.wiki/Asprovouni_(Ellaktor)_wind_farm
2024/03/20,Greece,Asprovouno (Terna) wind farm,--,Ασπροβουνο,,45,Onshore,announced,,,,,Terna Energy,Τερνα Ενεργειακη Ανωνυμη Βιομηχανικη Εμπορικη Τεχνικη Εταιρεια Α Ε,,35.5897,27.151,exact,,Karpathos-Kasos Regional Unit,South Aegean,Aegean,Southern Europe,Europe,L100000914511,G100000917973,RAE: Γ-04825,RAE: 35718,https://www.gem.wiki/Asprovouno_(Terna)_wind_farm
2024/03/20,Greece,Ayia Dynate wind farm,--,Αγία Δυνατή,"Agia Dynati, Agios Dynati",34.5,Onshore,operating,2009,,,,Ellaktor SA,Ελλακτωρ Α.Ε.,,38.2862,20.5633,exact,Pylaros Municipal Unit,Kefallonia Regional Unit,Ioanian Islands,"Peloponnese, Western Greece and the Ionian",Southern Europe,Europe,L100000913745,G100000917081,RAE: ΑΔ-00557,RAE: 40043,https://www.gem.wiki/Ayia_Dynate_wind_farm
2022/03/22,Greece,Belecheri wind farm,1,Μπελεχερι,,20,Onshore,operating,2015,,,,Aioliki Beleheri SA,Αιολικη Μπελεχερι ΜΑE,,36.9477,22.8669,exact,,Laconia Regional Unit,Peloponnese Region,"Peloponnese, Western Greece and the Ionian",Southern Europe,Europe,L100000911446,G100000914426,"RAE: Γ-00579,RAE: ΑΔ-00644",,https://www.gem.wiki/Belecheri_wind_farm
2024/03/20,Greece,Bompias Platani wind farm,--,"Κονιδα, Πλατανι, Ψηλη, Πουπα, Αλλεργια, Βιτσιλια, Κερι, Μπομπιας",,108,Onshore,announced,,,,,Terna Energy,Τερνα Ενεργειακη Ανωνυμη Βιομηχανικη Εμπορικη Τεχνικη Εταιρεια Α Ε,,35.4111,24.9761,exact,Gazi Municipal Unit,Heraklion Regional Unit,Region of Crete,Region of Crete,Southern Europe,Europe,L100000915742,G100000919457,RAE: Γ-05325,RAE: 35773,https://www.gem.wiki/Bompias_Platani_wind_farm
2024/03/20,Greece,Chalepa Platani wind farm,--,"Χαλεπα, Πλατανι",,24,Onshore,announced,,,,,Terna Energy,Τερνα Ενεργειακη Ανωνυμη Βιομηχανικη Εμπορικη Τεχνικη Εταιρεια Α Ε,,35.4808,23.6216,exact,,Chania Regional Unit,Region of Crete,Region of Crete,Southern Europe,Europe,L100000912362,G100000915462,RAE: Γ-05084,RAE: 33172,https://www.gem.wiki/Chalepa_Platani_wind_farm
2024/03/20,Greece,Chionaki wind farm,--,Χιονακι,,14.4,Onshore,operating,2019,,,,National Energy Holdings,New Ne Solar Developments Five 5 Μονοπροσωπη Ανωνυμη Εταιρεια,,39.0813,21.3646,exact,Municipal Unit of Inachos,Aetolia-Acarnania Regional Unit,Western Greece,"Peloponnese, Western Greece and the Ionian",Southern Europe,Europe,L100000910099,G100000912919,RAE: ΑΔ-02386,RAE: 39649,https://www.gem.wiki/Chionaki_wind_farm
2024/03/20,Greece,Chlogos wind farm,--,Χλογος,,18.7,Onshore,operating,2012,,,,Enel Green Power Greece SA,Enel Green Power Hellas A.E.,,37.7608,22.8552,exact,Municipal Unit of Tenea,Corinthia Regional Unit,Peloponnese Region,"Peloponnese, Western Greece and the Ionian",Southern Europe,Europe,L100000911347,G100000914314,RAE: ΑΔ-00460,RAE: 40230,https://www.gem.wiki/Chlogos_wind_farm
2024/03/20,Greece,Chonos 2 wind farm,--,Χωνος Ιι,,21,Onshore,announced,,,,,Terna Energy,Τερνα Ενεργειακη Ανωνυμη Βιομηχανικη Εμπορικη Τεχνικη Εταιρεια Α Ε,,35.1483,26.1408,exact,Itanos Municipal Unit,Lasithi Regional Unit,Region of Crete,Region of Crete,Southern Europe,Europe,L100000911835,G100000914860,RAE: Γ-05087,RAE: 35502,https://www.gem.wiki/Chonos_2_wind_farm
2024/03/20,Greece,Chylos (Pherron Evrou Energy) wind farm,--,Χυλος,,12.5,Onshore,operating,2013,,Terna Energy,Τερνα Ενεργειακη Ανωνυμη Βιομηχανικη Εμπορικη Τεχνικη Εταιρεια Α Ε,Terna Energy,Τερνα Ενεργειακη Ανωνυμη Βιομηχανικη Εμπορικη Τεχνικη Εταιρεια Α Ε,,40.9662,26.0952,exact,,Evros Regional Unit,Eastern Macedonia and Thrace,Macedonia and Thrace,Southern Europe,Europe,L100000909417,G100000912168,RAE: ΑΔ-00263,RAE: 40546,https://www.gem.wiki/Chylos_(Pherron_Evrou_Energy)_wind_farm
2024/03/20,Greece,Dalamaki wind farm,--,Νταλαμακι,Interphoton Ntalamaki,10.8,Onshore,operating,2020,,,,InterPhoton,Interphoton Εκμεταλλευση Ακινητων Ανωνυμη Εταιρεια,,38.2091,23.1389,exact,,Regional Unit of Boeotia,Central Greece,Thessaly and Central Greece,Southern Europe,Europe,L100000908361,G100000911058,RAE: ΑΔ-03157,RAE: 37488,https://www.gem.wiki/Dalamaki_wind_farm
2024/03/20,Greece,Derveni Mikro Derveni Sliva wind farm,--,Δερβενι - Μικρο Δερβενι - Σλιβα,Derveni-Mikro/Sliva,24,Onshore,operating,2014,,Terna Energy,Τερνα Ενεργειακη Ανωνυμη Βιομηχανικη Εμπορικη Τεχνικη Εταιρεια Α Ε,Terna Energy,Τερνα Ενεργειακη Ανωνυμη Βιομηχανικη Εμπορικη Τεχνικη Εταιρεια Α Ε,,40.963,25.9839,exact,Alexandroupoli,Evros Regional Unit,Eastern Macedonia and Thrace,Macedonia and Thrace,Southern Europe,Europe,L100000912370,G100000915470,RAE: ΑΔ-00265,RAE: 40523,https://www.gem.wiki/Derveni_Mikro_Derveni_Sliva_wind_farm
2024/04/21,Greece,Dexamenes 2 wind farm,--,Δεξαμενες Ιι,Karystia wind project,15,Onshore,operating,2023,,,,Terna Energy,Τερνα Ενεργειακη Ανωνυμη Βιομηχανικη Εμπορικη Τεχνικη Εταιρεια Α Ε,,38.0645,24.5773,exact,,Euboea Regional Unit,Central Greece,Thessaly and Central Greece,Southern Europe,Europe,L100000910207,G100000913037,,RAE: 34001,https://www.gem.wiki/Dexamenes_2_wind_farm
2024/03/20,Greece,Diakophtes wind farm,--,Διακοφτης,Evia Diakofits,11.7,Onshore,operating,2019,,,,,,,38.1299,24.2645,exact,,Euboea Regional Unit,Central Greece,Thessaly and Central Greece,Southern Europe,Europe,L100000908676,G100000911388,RAE: ΑΔ-00544,RAE: 40772,https://www.gem.wiki/Diakophtes_wind_farm
2024/03/20,Greece,Didemos Lophos Dichalo wind farm,--,Διδυμος Λοφος - Διχαλο,"Didimos Lofos, Didimos Loftos",26,Onshore,operating,2005,,Terna Energy,Τερνα Ενεργειακη Ανωνυμη Βιομηχανικη Εμπορικη Τεχνικη Εταιρεια Α Ε,Terna Energy,Τερνα Ενεργειακη Ανωνυμη Βιομηχανικη Εμπορικη Τεχνικη Εταιρεια Α Ε,,41.156,25.9104,exact,,Rodopi Regional Unit,Eastern Macedonia and Thrace,Macedonia and Thrace,Southern Europe,Europe,L100000912772,G100000915925,RAE: ΑΔ-00266,RAE: 40520,https://www.gem.wiki/Didemos_Lophos_Dichalo_wind_farm
2024/03/20,Greece,Doloni wind farm,--,Δολωνι,,18,Onshore,announced,,,,,Terna Energy,Τερνα Ενεργειακη Ανωνυμη Βιομηχανικη Εμπορικη Τεχνικη Εταιρεια Α Ε,,35.1467,26.205,exact,Itanos Municipal Unit,Lasithi Regional Unit,Region of Crete,Region of Crete,Southern Europe,Europe,L100000911032,G100000913960,RAE: V_SDI_R_AIOLIKA7.34492,RAE: 34492,https://www.gem.wiki/Doloni_wind_farm
2024/03/20,Greece,Dore wind farm,--,Δορυ,,38.5,Onshore,announced,,,,,Greekstream Energy SA,Greekstream Energy Ανωνυμη Εταιρεια,,41.3006,25.6441,exact,,Rodopi Regional Unit,Eastern Macedonia and Thrace,Macedonia and Thrace,Southern Europe,Europe,L100000914110,G100000917497,RAE: Γ-011167,RAE: 38391,https://www.gem.wiki/Dore_wind_farm
2024/04/21,Greece,Doungza Adias wind farm,--,Ντουγκζα-Αντιας,Karystia wind project,10.8,Onshore,operating,2022,,,,Terna Energy,Τερνα Ενεργειακη Ανωνυμη Βιομηχανικη Εμπορικη Τεχνικη Εταιρεια Α Ε,,38.0593,24.5594,exact,,Euboea Regional Unit,Central Greece,Thessaly and Central Greece,Southern Europe,Europe,L100000908362,G100000911059,RAE: ΑΔ-00473,RAE: 37518,https://www.gem.wiki/Doungza_Adias_wind_farm
2024/03/20,Greece,Duo Petres wind farm,--,Δυο Πετρες,Dio Petres,25.2,Onshore,operating,2021,,,,Enerfarm SA,Enerfarm 3 Μae,,41.3065,23.4152,exact,,Serres Regional Unit,Central Macedonia,Macedonia and Thrace,Southern Europe,Europe,L100000912701,G100000915842,RAE: ΑΔ-02452,RAE: 40777,https://www.gem.wiki/Duo_Petres_wind_farm
2024/03/20,Greece,Elatias Tsakos wind farm,--,Ελατιας - Τσακος,,13.3,Onshore,announced,,,,,K Kepouros Wind SA,Κ Κηπουρος Αιολικη ΑΕ,,38.184,23.2578,exact,Municipal Unit of Vilia,Regional Unit of West Attica,Attica,Attica,Southern Europe,Europe,L100000909688,G100000912467,RAE: Γ-012295,RAE: 38535,https://www.gem.wiki/Elatias_Tsakos_wind_farm
2024/03/20,Greece,Eressou Ypsoma Phourka wind farm,--,Ερεσσου Υψωμα-Φουρκα,Eressou Ipsoma Fourka,37.8,Onshore,operating,2017,,Terna Energy,Τερνα Ενεργειακη Ανωνυμη Βιομηχανικη Εμπορικη Τεχνικη Εταιρεια Α Ε,Terna Energy,Τερνα Ενεργειακη Ανωνυμη Βιομηχανικη Εμπορικη Τεχνικη Εταιρεια Α Ε,,40.4391,22.1114,exact,,Imathia Regional Unit,Central Macedonia,Macedonia and Thrace,Southern Europe,Europe,L100000914030,G100000917405,RAE: ΑΔ-01717,RAE: 40540,https://www.gem.wiki/Eressou_Ypsoma_Phourka_wind_farm
2024/04/16,Greece,Erimia (Phthiotidas Eremia) wind farm,--,Ερημια,,35.4,Onshore,operating,2023,,,,EDPR Renewable Energy Sources of Greece 1 Sole Proprietorship,EDPR Ανανεωσιμες Πηγες Ενεργειας Ελλας 1 Μονοπροσωπη Ανωνυμη Εταιρεια,,38.6065,23.2232,exact,,Phthiotis Regional Unit,Central Greece,Thessaly and Central Greece,Southern Europe,Europe,L100000913742,G100000917078,RAE: ΑΔ-03279,RAE: 42021,https://www.gem.wiki/Erimia_(Phthiotidas_Eremia)_wind_farm
2024/03/20,Greece,Exostes wind farm,--,Εξωστης,Exostis,18.4,Onshore,operating,2020,,Terna Energy,Τερνα Ενεργειακη Ανωνυμη Βιομηχανικη Εμπορικη Τεχνικη Εταιρεια Α Ε,Terna Energy,Τερνα Ενεργειακη Ανωνυμη Βιομηχανικη Εμπορικη Τεχνικη Εταιρεια Α Ε,,38.177,24.322,exact,,Euboea Regional Unit,Central Greece,Thessaly and Central Greece,Southern Europe,Europe,L100000911300,G100000914262,RAE: ΑΔ-00521,RAE: 40522,https://www.gem.wiki/Exostes_wind_farm
2024/03/20,Greece,Galosi Rikeza wind farm,--,Γκαλοσι Ρικεζα,Galosi Rikeza,19.8,Onshore,operating,2020,,Terna Energy,Τερνα Ενεργειακη Ανωνυμη Βιομηχανικη Εμπορικη Τεχνικη Εταιρεια Α Ε,Terna Energy,Τερνα Ενεργειακη Ανωνυμη Βιομηχανικη Εμπορικη Τεχνικη Εταιρεια Α Ε,,38.1483,24.3302,exact,,Euboea Regional Unit,Central Greece,Thessaly and Central Greece,Southern Europe,Europe,L100000911449,G100000914429,RAE: ΑΔ-00458,RAE: 33936,https://www.gem.wiki/Galosi_Rikeza_wind_farm
2024/03/20,Greece,Gathoumeno Vrachaki wind farm,1,Γαθουμενο - Βραχακι,"Skopies, Skopies Rokas",14.4,Onshore,operating,2000,,,,Rokas Aeoliki North Hellas II Ave,Ροκας Αιολικη Βορειος Ελλας Ιι Αβεε,,38.3136,24.2047,exact,,Euboea Regional Unit,Central Greece,Thessaly and Central Greece,Southern Europe,Europe,L100000910101,G100000912921,RAE: ΑΔ-00075,RAE: 40292,https://www.gem.wiki/Gathoumeno_Vrachaki_wind_farm
2024/03/20,Greece,Gavrovo wind farm,1&2,Γαβροβο,,24.3,Onshore,operating,2018,,,,National Energy Holdings,New Ne Solar Developments Five 5 Μονοπροσωπη Ανωνυμη Εταιρεια,,39.1394,21.3365,exact,Municipal Unit of Inachos,Aetolia-Acarnania Regional Unit,Western Greece,"Peloponnese, Western Greece and the Ionian",Southern Europe,Europe,L100000912563,G100000915692,RAE: ΑΔ-01892,RAE: 39645,https://www.gem.wiki/Gavrovo_wind_farm
2024/03/20,Greece,Gerabe wind farm,--,Γεραμπη,,14.4,Onshore,operating,2021,,,,,,,39.2009,21.2829,exact,,Arta Regional Unit,Epirus,Epirus and Western Macedonia,Southern Europe,Europe,L100000910102,G100000912922,RAE: ΑΔ-01903,RAE: 38446,https://www.gem.wiki/Gerabe_wind_farm
2024/03/20,Greece,Geraki (Enel) wind farm,--,Γερακι,,14.4,Onshore,operating,2003,,Enel Green Power,,Enel Green Power Greece SA,Enel Green Power Hellas A.E.,,41.1536,25.8685,exact,,Rodopi Regional Unit,Eastern Macedonia and Thrace,Macedonia and Thrace,Southern Europe,Europe,L100000910103,G100000912923,RAE: ΑΔ-00114,RAE: 40228,https://www.gem.wiki/Geraki_(Enel)_wind_farm
2024/03/20,Greece,Geraneia wind farm,1,Γερανεια,,84,Onshore,announced,,,,,,,,38.0034,23.0061,exact,,Loutraki-Perachora-Agioi Theodoroi Municipality,Corinthia Regional Unit,Peloponnese Region,Southern Europe,Europe,L100001004876,G100001005773,,RAE: 43049,https://www.gem.wiki/Geraneia_wind_farm
2024/03/20,Greece,Geraneia wind farm,3,Γερανεια,,78,Onshore,announced,,,,,,,,38.0233,23.0387,exact,,Loutraki-Perachora-Agioi Theodoroi Municipality,Corinthia Regional Unit,Peloponnese Region,Southern Europe,Europe,L100001004876,G100001005774,,RAE: 43047,https://www.gem.wiki/Geraneia_wind_farm
2024/03/20,Greece,Geraneia wind farm,4,Γερανεια,,72,Onshore,announced,,,,,,,,38.0083,23.0779,exact,,Loutraki-Perachora-Agioi Theodoroi Municipality,Corinthia Regional Unit,Peloponnese Region,Southern Europe,Europe,L100001004876,G100001005775,,RAE: 42564,https://www.gem.wiki/Geraneia_wind_farm
2024/03/20,Greece,Gerki Pyrgari wind farm,--,Γκερκι-Πυργαρι,"Evia Polypotamous, Evia",12,Onshore,operating,2000,,,,Polypotamos Wind Energy AE,Πολυποταμος Αιολικη Ενεργεια Αε,,38.2243,24.2314,exact,,Euboea Regional Unit,Central Greece,Thessaly and Central Greece,Southern Europe,Europe,L100000908902,G100000911629,RAE: ΑΔ-00024,RAE: 33976,https://www.gem.wiki/Gerki_Pyrgari_wind_farm
2024/03/20,Greece,Goritsa wind farm,--,Γκοριτσα,,33.3,Onshore,operating,2017,,,,Eren Hellas,Eren Ελλας,,38.302,22.9568,exact,,Regional Unit of Boeotia,Central Greece,Thessaly and Central Greece,Southern Europe,Europe,L100000913597,G100000916911,RAE: ΑΔ-01221,RAE: 40844,https://www.gem.wiki/Goritsa_wind_farm
2024/03/20,Greece,Gouri Meles Kiapha Verme wind farm,1,Γκουρι Μελες Κιαφα Βερμη,Gouri Meles,33,Onshore,operating,2014,,Terna Energy,Τερνα Ενεργειακη Ανωνυμη Βιομηχανικη Εμπορικη Τεχνικη Εταιρεια Α Ε,Terna Energy,Τερνα Ενεργειακη Ανωνυμη Βιομηχανικη Εμπορικη Τεχνικη Εταιρεια Α Ε,,38.1992,23.3747,exact,Municipal Unit of Erythres,Regional Unit of West Attica,Attica,Attica,Southern Europe,Europe,L100000913599,G100000916913,RAE: ΑΔ-00425,RAE: 40534,https://www.gem.wiki/Gouri_Meles_Kiapha_Verme_wind_farm
2024/03/20,Greece,Grammatikaki wind farm,1&2,Γραμματικακι,,16.1,Onshore,operating,2017,,,,Copelouzos Group,,,41.1792,25.8052,exact,,Rodopi Regional Unit,Eastern Macedonia and Thrace,Macedonia and Thrace,Southern Europe,Europe,L100000910697,G100000913588,RAE: ΑΔ-03293,RAE: 40341,https://www.gem.wiki/Grammatikaki_wind_farm
2024/03/20,Greece,Gropes Rache Gione wind farm,--,Γκροπες Ραχη Γκιωνη,"Gropes, Gropius-Rahi Gkioni",18.9,Onshore,operating,2018,,,,Ellaktor SA,Ελλακτωρ Α.Ε.,,36.8834,22.9215,exact,,Laconia Regional Unit,Peloponnese Region,"Peloponnese, Western Greece and the Ionian",Southern Europe,Europe,L100000911352,G100000914320,RAE: ΑΔ-00267,RAE: 39966,https://www.gem.wiki/Gropes_Rache_Gione_wind_farm
2024/03/20,Greece,Hemerovigli wind farm,--,Ημεροβιγλι,Imerovigli,39,Onshore,operating,2008,,EDF Renewables,法國電力再生能源公司,EDF Renewables Greece,Edf Renewables Hellas Μονοπροσωπη Α.Ε,,38.3083,20.5172,exact,Pylaros Municipal Unit,Kefallonia Regional Unit,Ioanian Islands,"Peloponnese, Western Greece and the Ionian",Southern Europe,Europe,L100000913270,G100000916511,RAE: ΑΔ-00554,RAE: 40322,https://www.gem.wiki/Hemerovigli_wind_farm
2024/03/20,Greece,Isiomata wind farm,--,Ισιωματα,,33.6,Onshore,announced,,,,,Epharmoyes Pyritium SA,Εφαρμογες Πυριτιου Α.Ε.,,38.0021,24.5517,exact,,Euboea Regional Unit,Central Greece,Thessaly and Central Greece,Southern Europe,Europe,L100000920300,G100000924958,RAE: Γ-014623,RAE: 41353,https://www.gem.wiki/Isiomata_wind_farm
2024/03/20,Greece,Kako Tsourmo wind farm,--,Κακο Τσουρμο -Μιχαλορραχη-Κολλ,Zefyros,24,Onshore,operating,2008,,,,,,,37.4703,22.2989,exact,,Arcadia Regional Unit,Peloponnese Region,"Peloponnese, Western Greece and the Ionian",Southern Europe,Europe,L100000912419,G100000915527,RAE: ΑΔ-00423,RAE: 40971,https://www.gem.wiki/Kako_Tsourmo_wind_farm
2024/04/21,Greece,Kakorachi Polemistra wind farm,--,Κακοραχη-Πολεμιστρα-Ισιος Βραχος-Κτημα-Λευκοθεα,,200,Onshore,announced,,,,,Niata Wind SA,Niata Aiolos Μονοπροσωπη A.E.,,41.249,25.5132,exact,,Komotini Municipality,Rodopi Regional Unit,Eastern Macedonia and Thrace,Southern Europe,Europe,L100001004886,G100001005785,,RAE: 42994,https://www.gem.wiki/Kakorachi_Polemistra_wind_farm
2024/04/21,Greece,Kalamaki (Terna Energy) wind farm,--,Καλαμακι,Karystia wind project,18,Onshore,operating,2023,,,,Terna Energy,Τερνα Ενεργειακη Ανωνυμη Βιομηχανικη Εμπορικη Τεχνικη Εταιρεια Α Ε,,38.141,24.5629,exact,,Euboea Regional Unit,Central Greece,Thessaly and Central Greece,Southern Europe,Europe,L100000911094,G100000914034,RAE: ΑΔ-02945,RAE: 32720,https://www.gem.wiki/Kalamaki_(Terna_Energy)_wind_farm
2024/03/20,Greece,Kalamos wind farm,1&2,Καλαμος,,10,Onshore,operating,2010,,,,unknown ; PPC Renewables SA (PPCR) ; EDF Renewables Greece,Edf Renewables Hellas Μονοπροσωπη Α.Ε,,38.5192,23.0535,exact,,Regional Unit of Boeotia,Central Greece,Thessaly and Central Greece,Southern Europe,Europe,L100000907927,G100000910603,RAE: ΑΔ-00821,RAE: 40062,https://www.gem.wiki/Kalamos_wind_farm
2024/03/20,Greece,Kalderimi wind farm,--,Καλντεριμι,,11.7,Onshore,operating,2017,,,,Vento Wind SA,Vento Κεφαλονια Ενεργειακη Μον .Αε,,38.2924,22.9305,exact,,Regional Unit of Boeotia,Central Greece,Thessaly and Central Greece,Southern Europe,Europe,L100000908677,G100000911390,RAE: ΑΔ-01114,RAE: 40951,https://www.gem.wiki/Kalderimi_wind_farm
2024/03/20,Greece,Kale Chitsa wind farm,--,Καλη Χιτσα,Kali Chitsa,16,Onshore,operating,2021,,,,Taff Prime Develop SA,Taff Prime Develop,,38.474,21.143,exact,Municipal Unit of Astakos,Aetolia-Acarnania Regional Unit,Western Greece,"Peloponnese, Western Greece and the Ionian",Southern Europe,Europe,L100000910558,G100000913430,RAE: ΑΔ-01911,RAE: 42432,https://www.gem.wiki/Kale_Chitsa_wind_farm
2024/03/20,Greece,Kalogerovouni wind farm,--,Καλογεροβουνι,,17.1,Onshore,operating,2017,,,,Ellaktor SA,Ελλακτωρ Α.Ε.,,36.852,22.9542,exact,,Laconia Regional Unit,Peloponnese Region,"Peloponnese, Western Greece and the Ionian",Southern Europe,Europe,L100000910919,G100000913835,RAE: ΑΔ-00290,RAE: 40026,https://www.gem.wiki/Kalogerovouni_wind_farm
2024/03/20,Greece,Kalyva - Touba wind farm,--,Καλυβα - Tουμπa,Kalyva,12,Onshore,operating,2007,,EDF Renewables,法國電力再生能源公司,EDF Renewables Greece,Edf Renewables Hellas Μονοπροσωπη Α.Ε,,38.3348,22.872,exact,,Regional Unit of Boeotia,Central Greece,Thessaly and Central Greece,Southern Europe,Europe,L100000908982,G100000911712,RAE: ΑΔ-00556,RAE: 41004,https://www.gem.wiki/Kalyva_-_Touba_wind_farm
2024/03/20,Greece,Kapsala (EMV Energy) wind farm,--,Καψαλα,Koukos & Kapsala,14,Onshore,operating,2017,,,,EMV Energy Investments SA,Emv (Emb) Ενεργειακες Επενδυσεις Ανωνυμος Εταιρια,,38.3919,22.675,exact,,Regional Unit of Boeotia,Central Greece,Thessaly and Central Greece,Southern Europe,Europe,L100000909907,G100000912702,RAE: ΑΔ-01633,RAE: 40761,https://www.gem.wiki/Kapsala_(EMV_Energy)_wind_farm
2024/03/20,Greece,Karabila-Keme wind farm,--,Καραμπιλα-Κυμη,Karampila Kimi,19.8,Onshore,operating,2020,,,,,,,38.1311,24.3318,exact,,Euboea Regional Unit,Central Greece,Thessaly and Central Greece,Southern Europe,Europe,L100000911452,G100000914432,RAE: ΑΔ-00427,RAE: 40527,https://www.gem.wiki/Karabila-Keme_wind_farm
2024/03/20,Greece,Kasidiaris wind farm,1,Κασιδιάρης,Kassidiaris,50.4,Onshore,operating,2020,,,,Ellaktor SA,Ελλακτωρ Α.Ε.,,39.806,20.5315,exact,,Ioannina Regional Unit,Epirus,Epirus and Western Macedonia,Southern Europe,Europe,L100000914173,G100000918681,"RAE: ΑΔ-02383,RAE: ΑΔ-01900",RAE: 38453,https://www.gem.wiki/Kasidiaris_wind_farm
2024/03/20,Greece,Kasidiaris wind farm,2,Κασιδιάρης,Kassidiaris,39.6,Onshore,operating,2020,,,,Ellaktor SA,Ελλακτωρ Α.Ε.,,39.8541,20.5051,exact,,Ioannina Regional Unit,Epirus,Epirus and Western Macedonia,Southern Europe,Europe,L100000914173,G100000917572,"RAE: ΑΔ-02383,RAE: ΑΔ-01900",RAE: 38449,https://www.gem.wiki/Kasidiaris_wind_farm
2022/03/22,Greece,Kastro Lykovouni wind farm,1,Καστρο - Λυκοβουνι,Kastro-Likovouni (Phase 1),24,Onshore,operating,2020,,,,Volterra SA,Volterra Δουκας Μ.Α.Ε.,,38.408,23.4563,exact,Chalkida,Euboea Regional Unit,Central Greece,Thessaly and Central Greece,Southern Europe,Europe,L100000911426,G100000915408,RAE: 40766,,https://www.gem.wiki/Kastro_Lykovouni_wind_farm
2022/03/22,Greece,Kastro Lykovouni wind farm,2,Καστρο - Λυκοβουνι,Kastro-Likovouni (Phase 1),19,Onshore,operating,2020,,,,Volterra SA,Volterra Δουκας Μ.Α.Ε.,,38.408,23.4563,exact,Chalkida,Euboea Regional Unit,Central Greece,Thessaly and Central Greece,Southern Europe,Europe,L100000911426,G100000914404,RAE: 40766,,https://www.gem.wiki/Kastro_Lykovouni_wind_farm
2024/03/20,Greece,Kathara (Enel) wind farm,--,Καθαρα,Kafireas,18.4,Onshore,operating,2019,,,,Enel Green Power Greece SA,Enel Green Power Hellas A.E.,,38.1138,24.5202,exact,,Euboea Regional Unit,Central Greece,Thessaly and Central Greece,Southern Europe,Europe,L100000911319,G100000914285,RAE: ΑΔ-01262,RAE: 40247,https://www.gem.wiki/Kathara_(Enel)_wind_farm
2024/03/20,Greece,Kedros (Voiotias Kedros) wind farm,--,Κεδρος,,20.8,Onshore,operating,2011,,,,Eunice Energy Group,,,38.4005,22.6864,exact,,Regional Unit of Boeotia,Central Greece,Thessaly and Central Greece,Southern Europe,Europe,L100000909749,G100000912530,RAE: ΑΔ-00535,RAE: 40336,https://www.gem.wiki/Kedros_(Voiotias_Kedros)_wind_farm
2024/04/15,Greece,Kephalaria wind farm,--,Κεφαλαρια,,18,Onshore,operating,2021,,,,PAP Energy SA,Pap Energy Αιολικα Παρκα Ανωνυμη Εταιρεια,,38.4078,22.2801,exact,Municipal Unit of Galaxidi,Regional Unit of Phocis,Central Greece,Thessaly and Central Greece,Southern Europe,Europe,L100000911101,G100000914041,RAE: ΑΔ-03084,RAE: 42475,https://www.gem.wiki/Kephalaria_wind_farm
2024/03/20,Greece,Kephalas wind farm,--,Κεφαλας,,21,Onshore,announced,,,,,Terna Energy,Τερνα Ενεργειακη Ανωνυμη Βιομηχανικη Εμπορικη Τεχνικη Εταιρεια Α Ε,,35.4647,27.1526,exact,,Karpathos-Kasos Regional Unit,South Aegean,Aegean,Southern Europe,Europe,L100000911872,G100000914902,RAE: Γ-04828,RAE: 34642,https://www.gem.wiki/Kephalas_wind_farm
2024/03/20,Greece,Kerasia (Enel) wind farm,1,Κερασια,Kafireas,27.6,Onshore,operating,2019,,,,Enel Green Power Greece SA,Enel Green Power Hellas A.E.,,38.082,24.4952,exact,,Euboea Regional Unit,Central Greece,Thessaly and Central Greece,Southern Europe,Europe,L100000912981,G100000916177,RAE: ΑΔ-01263,RAE: 40248,https://www.gem.wiki/Kerasia_(Enel)_wind_farm
2024/03/20,Greece,Kerveros wind farm,--,Κερβερος,,41,Onshore,operating,2003,,,,Rokas Aeoliki North Hellas II Ave,Ροκας Αιολικη Βορειος Ελλας Ιι Αβεε,,41.1612,25.8462,exact,,Rodopi Regional Unit,Eastern Macedonia and Thrace,Macedonia and Thrace,Southern Europe,Europe,L100000913459,G100000916738,RAE: ΑΔ-00111,RAE: 40065,https://www.gem.wiki/Kerveros_wind_farm
2024/03/20,Greece,Kikida Fouvagia wind farm,--,Κικιδα-Φουβαγια,,42,Onshore,announced,,,,,,,,38.0059,23.0757,exact,,Loutraki-Perachora-Agioi Theodoroi Municipality,Corinthia Regional Unit,Peloponnese Region,Southern Europe,Europe,L100001004901,G100001005800,,RAE: 210,https://www.gem.wiki/Kikida_Fouvagia_wind_farm
2024/03/20,Greece,Kithaironas wind farm,1,Κιθαιρώνας,"Fosen Wind, Extension of Hitra Wind Farm",25.5,Onshore,operating,2011,,,,Eren Hellas,Eren Ελλας,,38.1941,23.1881,exact,,Regional Unit of Boeotia,Central Greece,Thessaly and Central Greece,Southern Europe,Europe,L100000912013,G100000915064,RAE: ΑΔ-00269,RAE: 40574,https://www.gem.wiki/Kithaironas_wind_farm
2024/03/20,Greece,Kokkala (Keve) wind farm,--,Κοκκαλα,,15,Onshore,announced,,,,,,,,38.785,20.953,exact,Municipal Unit of Palairos,Aetolia-Acarnania Regional Unit,Western Greece,"Peloponnese, Western Greece and the Ionian",Southern Europe,Europe,L100000920302,G100000924960,RAE: Γ-013820,RAE: 40739,https://www.gem.wiki/Kokkala_(Keve)_wind_farm
2024/03/20,Greece,Kokkala wind farm VI,--,Κοκκαλα,,18,Onshore,announced,,,,,,,,41.3755,26.2002,exact,,Didymoticho Municipality,Evros Regional Unit,Eastern Macedonia and Thrace,Southern Europe,Europe,L100001004904,G100001005803,,RAE: 42600,https://www.gem.wiki/Kokkala_wind_farm_VI
2024/03/20,Greece,Kokkalo Vamvakia Dasorrachi wind farm,--,Κοκκαλο Βαμβακια Δασορραχη Φυλακας,,144,Onshore,announced,,,,,,,,41.3836,26.1935,exact,,Didymoticho Municipality,Evros Regional Unit,Eastern Macedonia and Thrace,Southern Europe,Europe,L100001004905,G100001005804,,RAE: 42547,https://www.gem.wiki/Kokkalo_Vamvakia_Dasorrachi_wind_farm
2024/03/20,Greece,Kokkinovrachos wind farm,--,Κοκκινοβραχος,,20,Onshore,announced,,,,,Rokas Aeoliki North Hellas II Ave,Ροκας Αιολικη Βορειος Ελλας Ιι Αβεε,,37.692,26.5965,exact,Municipal Unit of Marathokabos,Samos Regional Unit,Northern Aegean,Aegean,Southern Europe,Europe,L100000911595,G100000914590,RAE: Γ-05215,RAE: 35758,https://www.gem.wiki/Kokkinovrachos_wind_farm
2024/03/20,Greece,Kolona Daphne wind farm,--,Κολονα - Δαφνη,Dafni-Kolona,10.8,Onshore,operating,2011,,,,Aerotechnik Wind SA,Αιολος Αεροτεχνικη Αε,,38.2682,20.4976,exact,,Kefallonia Regional Unit,Ioanian Islands,"Peloponnese, Western Greece and the Ionian",Southern Europe,Europe,L100000908279,G100000910973,RAE: ΑΔ-00568,RAE: 42449,https://www.gem.wiki/Kolona_Daphne_wind_farm
2024/03/20,Greece,Kolosoura wind farm,--,Κολοσουρα,,30,Onshore,announced,,,,,Enercoplan Investments SA,Enercoplan Investments A.E,,38.1113,23.2969,exact,Municipal Unit of Vilia,Regional Unit of West Attica,Attica,Attica,Southern Europe,Europe,L100000913288,G100000916533,RAE: Γ-010027,RAE: 37819,https://www.gem.wiki/Kolosoura_wind_farm
2024/03/20,Greece,Korakosellia wind farm,--,Κορακοσελλια,,16.1,Onshore,announced,,,,,K Sarras & Co LLC,Κ. Σαρρας & Σια - Θεση Μαδαρα Ο.Ε.,,35.4029,23.5555,exact,,Chania Regional Unit,Region of Crete,Region of Crete,Southern Europe,Europe,L100000910698,G100000913589,RAE: V_SDI_R_AIOLIKA7.34841,RAE: 34841,https://www.gem.wiki/Korakosellia_wind_farm
2024/03/20,Greece,Korakovrachos wind farm,--,Κορακοβραχος,Karystia wind project,21,Onshore,operating,2023,,,,Terna Energy,Τερνα Ενεργειακη Ανωνυμη Βιομηχανικη Εμπορικη Τεχνικη Εταιρεια Α Ε,,38.0513,24.5149,exact,,Euboea Regional Unit,Central Greece,Thessaly and Central Greece,Southern Europe,Europe,L100000911879,G100000914910,RAE: ΑΔ-02475,RAE: 32704,https://www.gem.wiki/Korakovrachos_wind_farm
2024/03/20,Greece,Korephe (Anayennese Atteve) wind farm,--,Κορυφη,Pear Wind,18,Onshore,operating,2019,,,,Envitec SA,Envitec A.E.,,38.1554,24.2732,exact,,Euboea Regional Unit,Central Greece,Thessaly and Central Greece,Southern Europe,Europe,L100000911109,G100000914050,RAE: ΑΔ-03530,RAE: 40572,https://www.gem.wiki/Korephe_(Anayennese_Atteve)_wind_farm
2024/03/20,Greece,Korephe (Siderokastrou) wind farm,1,Κορυφη,"Sikirokastro (Phase 1), Serres (Phase 1), Koryfi (Phase 2)",17,Onshore,operating,2005,,,,,,,41.3114,23.3824,exact,,Serres Regional Unit,Central Macedonia,Macedonia and Thrace,Southern Europe,Europe,L100000910272,G100000913747,"RAE: ΑΔ-00222,RAE: ΑΔ-01880",RAE: 40775,https://www.gem.wiki/Korephe_(Siderokastrou)_wind_farm
2024/03/20,Greece,Korephe (Siderokastrou) wind farm,2,Κορυφη,"Sikirokastro (Phase 1), Serres (Phase 1), Koryfi (Phase 2)",15,Onshore,operating,2016,,,,,,,41.3066,23.3848,exact,,Serres Regional Unit,Central Macedonia,Macedonia and Thrace,Southern Europe,Europe,L100000910272,G100000913112,"RAE: ΑΔ-00222,RAE: ΑΔ-01880",RAE: 33552,https://www.gem.wiki/Korephe_(Siderokastrou)_wind_farm
2024/03/20,Greece,Korobili (C.N.I. Wind) wind farm,--,Κορομπιλι,,21.6,Onshore,operating,2020,,,,CNI Energy SA,C.N.I. Aioλικο Παρκο Κουκουρα Αε,,38.2149,23.0976,exact,,Regional Unit of Boeotia,Central Greece,Thessaly and Central Greece,Southern Europe,Europe,L100000911992,G100000915041,RAE: ΑΔ-01455,RAE: 40041,https://www.gem.wiki/Korobili_(C.N.I._Wind)_wind_farm
2024/03/20,Greece,Korobili (Viotia Aiolos) wind farm,--,Κορομπιλι,,28.8,Onshore,operating,2019,,,,Viotia Aiolos LLC,Viotia Aiolos Μονοπροσωπη Ανωνυμη Εταιρεια Παραγωγης & Εκμεταλλευσης Ενεργειας,,38.2429,23.1626,exact,,Regional Unit of Boeotia,Central Greece,Thessaly and Central Greece,Southern Europe,Europe,L100000913100,G100000916315,RAE: ΑΔ-03032,RAE: 40321,https://www.gem.wiki/Korobili_(Viotia_Aiolos)_wind_farm
2024/03/20,Greece,Korphovouni (Korphovouni Wind) wind farm,1&2,Πλατυσερα,,16.1,Onshore,operating,2019,,,,,,,41.0446,25.9418,exact,,Evros Regional Unit,Eastern Macedonia and Thrace,Macedonia and Thrace,Southern Europe,Europe,L100000910699,G100000913590,RAE: ΑΔ-03294,RAE: 40344,https://www.gem.wiki/Korphovouni_(Korphovouni_Wind)_wind_farm
2024/03/20,Greece,Koukoura wind farm,--,Κουκουρα,,16.5,Onshore,operating,2019,,,,CNI Energy SA,C.N.I. Aioλικο Παρκο Κουκουρα Αε,,37.3594,22.478,exact,,Arcadia Regional Unit,Peloponnese Region,"Peloponnese, Western Greece and the Ionian",Southern Europe,Europe,L100000910741,G100000913634,RAE: ΑΔ-01154,RAE: 40004,https://www.gem.wiki/Koukoura_wind_farm
2024/03/20,Greece,Kourmoutsi Kardara wind farm,--,Κουρμουτσι - Καρδαρα,,21.2,Onshore,operating,2020,,,,Vector Wind Desphinas SA,Vector Aιολικη Δεσφινας Ανωνυμη Εταιρεια,,38.3243,22.5357,exact,Municipal Unit of Desfina,Regional Unit of Phocis,Central Greece,Thessaly and Central Greece,Southern Europe,Europe,L100000911976,G100000915022,RAE: ΑΔ-00522,RAE: 40377,https://www.gem.wiki/Kourmoutsi_Kardara_wind_farm
2024/03/20,Greece,Koutsoupha Soros wind farm,--,Κουτσουφα - Σωρος,,48,Onshore,announced,,,,,Terna Energy,Τερνα Ενεργειακη Ανωνυμη Βιομηχανικη Εμπορικη Τεχνικη Εταιρεια Α Ε,,36.0997,27.8073,exact,,Rhodes Regional Unit,South Aegean,Aegean,Southern Europe,Europe,L100000914705,G100000918196,RAE: Γ-05327,RAE: 35774,https://www.gem.wiki/Koutsoupha_Soros_wind_farm
2024/03/20,Greece,Koutsouri Kikideza wind farm,--,Κουτσουρι_Κικιδεζα,,21,Onshore,announced,,,,,Green Repower,Green Repower Μονοπροσωπη Ι.Κ.Ε.,,38.2055,23.6299,exact,,Regional Unit of Boeotia,Central Greece,Thessaly and Central Greece,Southern Europe,Europe,L100000911883,G100000914914,RAE: Γ-010396,RAE: 38357,https://www.gem.wiki/Koutsouri_Kikideza_wind_farm
2024/03/20,Greece,Koutsoutes wind farm,--,Κουτσουτης,Koutsoutis,11.7,Onshore,operating,2009,,,,Enel Green Power Greece SA,Enel Green Power Hellas A.E.,,36.2433,28.0623,exact,,Rhodes Regional Unit,South Aegean,Aegean,Southern Europe,Europe,L100000908678,G100000911391,RAE: ΑΔ-00358,RAE: 40242,https://www.gem.wiki/Koutsoutes_wind_farm
2024/03/20,Greece,Krekeza Moungoulios wind farm,--,Κρεκεζα - Μουγγουλιος,Krekeza Mougolios,30,Onshore,operating,2011,,Terna Energy,Τερνα Ενεργειακη Ανωνυμη Βιομηχανικη Εμπορικη Τεχνικη Εταιρεια Α Ε,Terna Energy,Τερνα Ενεργειακη Ανωνυμη Βιομηχανικη Εμπορικη Τεχνικη Εταιρεια Α Ε,,38.161,23.5837,exact,,Regional Unit of Boeotia,Central Greece,Thessaly and Central Greece,Southern Europe,Europe,L100000913291,G100000916537,RAE: ΑΔ-00306,RAE: 40518,https://www.gem.wiki/Krekeza_Moungoulios_wind_farm
2024/03/20,Greece,Kreon Wind Park,1,,Crete Cria,10,Onshore,operating,1999,,,,,,,35.1488,26.0376,exact,Sitia Municipal Unit,Lasithi Regional Unit,Region of Crete,Region of Crete,Southern Europe,Europe,L100000907944,G100000910620,RAE: ΑΔ-00038,RAE: 42617,https://www.gem.wiki/Kreon_Wind_Park
2024/03/20,Greece,Kyrton wind farm,1&2,Κυρτον,,25.3,Onshore,operating,2019,,,,Megavouni Wind Park SA,Αιολικο Παρκο Μεγαβουνι Α.Ε.,,41.269,25.7748,exact,,Rodopi Regional Unit,Eastern Macedonia and Thrace,Macedonia and Thrace,Southern Europe,Europe,L100000912727,G100000915873,RAE: ΑΔ-03372,RAE: 40349,https://www.gem.wiki/Kyrton_wind_farm
2024/03/20,Greece,Latza wind farm,--,Λατζα,,45,Onshore,announced,,,,,Terna Energy,Τερνα Ενεργειακη Ανωνυμη Βιομηχανικη Εμπορικη Τεχνικη Εταιρεια Α Ε,,35.3781,26.9138,exact,,Karpathos-Kasos Regional Unit,South Aegean,Aegean,Southern Europe,Europe,L100000914542,G100000918007,RAE: Γ-04827,RAE: 36326,https://www.gem.wiki/Latza_wind_farm
2022/03/22,Greece,Lefkes (Belecheri) wind farm,1,Λευκες,"Lefkes Edf (Phase 1), Lefkes Peleta (Phase 1)",24,Onshore,operating,2015,,,,Aioliki Beleheri SA,Αιολικη Μπελεχερι ΜΑE,,37.0366,22.8465,exact,Municipal Unit of Leonidio,Arcadia Regional Unit,Peloponnese Region,"Peloponnese, Western Greece and the Ionian",Southern Europe,Europe,L100000912446,G100000915555,,RAE: 42783,https://www.gem.wiki/Lefkes_(Belecheri)_wind_farm
2024/03/20,Greece,Lemonies wind farm,--,Λεμονιες,,48,Onshore,announced,,,,,Rokas Aeoliki North Hellas II Ave,Ροκας Αιολικη Βορειος Ελλας Ιι Αβεε,,37.7492,26.9159,exact,Municipal Unit of Vathy,Samos Regional Unit,Northern Aegean,Aegean,Southern Europe,Europe,L100000914710,G100000918201,RAE: Γ-05277,RAE: 33076,https://www.gem.wiki/Lemonies_wind_farm
2024/03/20,Greece,Liodari wind farm,--,Λιονταρι,,24,Onshore,announced,,,,,Enercoplan Investments SA,Enercoplan Investments A.E,,38.1112,23.3301,exact,Municipal Unit of Mandra,Regional Unit of West Attica,Attica,Attica,Southern Europe,Europe,L100000912449,G100000915559,RAE: Γ-010030,RAE: 37820,https://www.gem.wiki/Liodari_wind_farm
2024/03/20,Greece,Litharoserma wind farm,--,Λιθαροσερμα,Litharose,24,Onshore,operating,2020,,,,PAP Energy SA,Pap Energy Αιολικα Παρκα Ανωνυμη Εταιρεια,,38.426,21.6686,exact,Municipal Unit of Chalkeia,Aetolia-Acarnania Regional Unit,Western Greece,"Peloponnese, Western Greece and the Ionian",Southern Europe,Europe,L100000912451,G100000915561,RAE: ΑΔ-01898,RAE: 42478,https://www.gem.wiki/Litharoserma_wind_farm
2024/03/20,Greece,Lithos wind farm,--,Λιθος,,18.9,Onshore,operating,2009,,Enel Green Power,,Enel Green Power Greece SA,Enel Green Power Hellas A.E.,,38.0924,22.1162,exact,,Achaea Regional Unit,Western Greece,"Peloponnese, Western Greece and the Ionian",Southern Europe,Europe,L100000908978,G100000911708,RAE: ΑΔ-00649,RAE: 40240,https://www.gem.wiki/Lithos_wind_farm
2024/03/20,Greece,Livadi wind farm,--,Λιβαδι,,45.2,Onshore,operating,2021,,,,EDPR Renewable Energy Sources of Greece 1 Sole Proprietorship,EDPR Ανανεωσιμες Πηγες Ενεργειας Ελλας 1 Μονοπροσωπη Ανωνυμη Εταιρεια,,38.6219,23.2857,exact,,Phthiotis Regional Unit,Central Greece,Thessaly and Central Greece,Southern Europe,Europe,L100000914498,G100000917959,RAE: ΑΔ-01785,RAE: 40889,https://www.gem.wiki/Livadi_wind_farm
2024/03/20,Greece,Longarakia wind farm,--,Λογγαρακια,Loggarakia,20,Onshore,operating,2014,,Terna Energy,Τερνα Ενεργειακη Ανωνυμη Βιομηχανικη Εμπορικη Τεχνικη Εταιρεια Α Ε,Terna Energy,Τερνα Ενεργειακη Ανωνυμη Βιομηχανικη Εμπορικη Τεχνικη Εταιρεια Α Ε,,37.4805,23.2881,exact,Municipal Unit of Ermioni,Argolis Regional Unit,Peloponnese Region,"Peloponnese, Western Greece and the Ionian",Southern Europe,Europe,L100000911621,G100000914620,RAE: ΑΔ-00613,RAE: 40537,https://www.gem.wiki/Longarakia_wind_farm
2024/03/20,Greece,Lophos Kylindrias wind farm,--,Λοφος Κυλινδριας,Lofoi Kylindrias,10,Onshore,operating,2009,,,,,,,41.1427,22.7912,exact,,Kilkis Regional Unit,Central Macedonia,Macedonia and Thrace,Southern Europe,Europe,L100000908005,G100000910690,RAE: ΑΔ-00422,RAE: 39565,https://www.gem.wiki/Lophos_Kylindrias_wind_farm
2024/03/20,Greece,Louzes Angathaki Rigane wind farm,--,Λουζες-Αγκαθακι-Ριγανη,"Louzes Agathaki Rigani, Louzes",27.6,Onshore,operating,2008,,Terna Energy,Τερνα Ενεργειακη Ανωνυμη Βιομηχανικη Εμπορικη Τεχνικη Εταιρεια Α Ε,Terna Energy,Τερνα Ενεργειακη Ανωνυμη Βιομηχανικη Εμπορικη Τεχνικη Εταιρεια Α Ε,,38.4461,21.789,exact,Municipal Unit of Nafpaktos,Aetolia-Acarnania Regional Unit,Western Greece,"Peloponnese, Western Greece and the Ionian",Southern Europe,Europe,L100000912959,G100000916154,RAE: ΑΔ-00385,RAE: 41542,https://www.gem.wiki/Louzes_Angathaki_Rigane_wind_farm
2024/03/20,Greece,Lykou Lakka wind farm,--,Λυκου Λακκα,,66,Onshore,announced,,,,,Rokas Aeoliki North Hellas II Ave,Ροκας Αιολικη Βορειος Ελλας Ιι Αβεε,,37.7895,26.9847,exact,Municipal Unit of Vathy,Samos Regional Unit,Northern Aegean,Aegean,Southern Europe,Europe,L100000915358,G100000919002,RAE: Γ-05216,RAE: 35760,https://www.gem.wiki/Lykou_Lakka_wind_farm
2024/03/20,Greece,Lyrkeion Oros wind farm,--,Λυρκειον Ορος,Lyrko,39.6,Onshore,operating,2016,,,,Ellaktor SA,Ελλακτωρ Α.Ε.,,37.6918,22.4628,exact,,Arcadia Regional Unit,Peloponnese Region,"Peloponnese, Western Greece and the Ionian",Southern Europe,Europe,L100000914175,G100000917574,RAE: ΑΔ-01023,RAE: 40046,https://www.gem.wiki/Lyrkeion_Oros_wind_farm
2022/03/22,Greece,Magoula Kazakou Diplon wind farm,1,Μαγουλα Καζακου - Διπλον,Magoula Kazakou,23,Onshore,operating,2011,,,,Ellaktor SA,Ελλακτωρ Α.Ε.,,41.0594,26.0015,exact,,Evros Regional Unit,Eastern Macedonia and Thrace,Macedonia and Thrace,Southern Europe,Europe,L100000910733,G100000915331,RAE: 40061,,https://www.gem.wiki/Magoula_Kazakou_Diplon_wind_farm
2022/03/22,Greece,Magoula Kazakou Diplon wind farm,2,Μαγουλα Καζακου - Διπλον,Magoula Kazakou,16,Onshore,operating,2015,,,,Ellaktor SA,Ελλακτωρ Α.Ε.,,41.0594,26.0015,exact,,Evros Regional Unit,Eastern Macedonia and Thrace,Macedonia and Thrace,Southern Europe,Europe,L100000910733,G100000913624,RAE: 40061,,https://www.gem.wiki/Magoula_Kazakou_Diplon_wind_farm
2024/03/20,Greece,Makrelakkoma wind farm,--,Μακρυλακκωμα,,29.9,Onshore,operating,2019,,,,,,,36.5946,22.4331,exact,Oitylos Municipal Unit,Laconia Regional Unit,Peloponnese Region,"Peloponnese, Western Greece and the Ionian",Southern Europe,Europe,L100000911323,G100000914289,RAE: ΑΔ-01098,RAE: 36370,https://www.gem.wiki/Makrelakkoma_wind_farm
2024/03/20,Greece,Makrerache Mesochorion wind farm,--,Μακρυραχη Μεσοχωριων,"Machrirachi, Makrirachi-A",27.4,Onshore,operating,2000,,,,Rokas Aeoliki North Hellas II Ave,Ροκας Αιολικη Βορειος Ελλας Ιι Αβεε,,38.2873,24.2397,exact,,Euboea Regional Unit,Central Greece,Thessaly and Central Greece,Southern Europe,Europe,L100000912958,G100000916153,RAE: ΑΔ-00099,RAE: 40294,https://www.gem.wiki/Makrerache_Mesochorion_wind_farm
2024/03/20,Greece,Makronesos Island wind farm,--,Μακρονησος,,100,Onshore,announced,,,,,Public Power Corporation of Greece (PPC),Δεη Ανανεωσιμες Αε,,37.7527,24.143,exact,,Kea-Kythnos Regional Unit,South Aegean,Aegean,Southern Europe,Europe,L100000915697,G100000919403,RAE: Γ-03925,RAE: 38687,https://www.gem.wiki/Makronesos_Island_wind_farm
2024/04/21,Greece,Makrynoros wind farm,--,Μακρυνορος,,43.2,Onshore,operating,2022,,,,Mytilineos Holdings SA,Όμιλος Μυτιληναίου,,38.5381,21.8808,exact,Municipal Unit of Apodotia,Aetolia-Acarnania Regional Unit,Western Greece,"Peloponnese, Western Greece and the Ionian",Southern Europe,Europe,L100000914447,G100000917901,,RAE: 36700,https://www.gem.wiki/Makrynoros_wind_farm
2024/03/20,Greece,Malavria Didimon wind farm,--,Μαλαβρια Διδυμων,"Didima, Didima EDF",36,Onshore,operating,2005,,EDF Renewables,法國電力再生能源公司,EDF Renewables Greece,Edf Renewables Hellas Μονοπροσωπη Α.Ε,,37.4811,23.1377,exact,Municipal Unit of Kranidi,Argolis Regional Unit,Peloponnese Region,"Peloponnese, Western Greece and the Ionian",Southern Europe,Europe,L100000913910,G100000917268,RAE: ΑΔ-00382,RAE: 41530,https://www.gem.wiki/Malavria_Didimon_wind_farm
2024/03/20,Greece,Malia Gliata Arachnaio wind farm,--,Μαλια Γκλιατα Αραχναιο,Arachnaio II,38,Onshore,operating,2010,,,,Rokas Aeoliki North Hellas II Ave,Ροκας Αιολικη Βορειος Ελλας Ιι Αβεε,,37.6481,22.9371,exact,Municipal Unit of Midea,Argolis Regional Unit,Peloponnese Region,"Peloponnese, Western Greece and the Ionian",Southern Europe,Europe,L100000914079,G100000917463,RAE: ΑΔ-00729,RAE: 33560,https://www.gem.wiki/Malia_Gliata_Arachnaio_wind_farm
2024/03/20,Greece,Mandra wind farm,--,Μανδρα,,14.4,Onshore,operating,2020,,,,Eren Hellas,Eren Ελλας,,41.1936,25.6421,exact,,Rodopi Regional Unit,Eastern Macedonia and Thrace,Macedonia and Thrace,Southern Europe,Europe,L100000910114,G100000912934,RAE: ΑΔ-03390,RAE: 40754,https://www.gem.wiki/Mandra_wind_farm
2024/03/20,Greece,Maristi Mavrovouni wind farm,--,Μαριστι - Μαυροβουνι,Maristi,42,Onshore,operating,2015,,,,Eren Hellas,Eren Ελλας,,38.2453,23.1276,exact,,Regional Unit of Boeotia,Central Greece,Thessaly and Central Greece,Southern Europe,Europe,L100000914370,G100000917808,RAE: ΑΔ-00893,RAE: 40968,https://www.gem.wiki/Maristi_Mavrovouni_wind_farm
2024/03/20,Greece,Maurovouni 3 (Terna) wind farm,--,Μαυροβουνι 3,,25.2,Onshore,announced,,,,,Terna Energy,Τερνα Ενεργειακη Ανωνυμη Βιομηχανικη Εμπορικη Τεχνικη Εταιρεια Α Ε,,38.2163,23.4495,exact,,Regional Unit of Boeotia,Central Greece,Thessaly and Central Greece,Southern Europe,Europe,L100000920313,G100000924971,RAE: Γ-013666,RAE: 40724,https://www.gem.wiki/Maurovouni_3_(Terna)_wind_farm
2024/03/20,Greece,Mavra Litharia (Pavlides Marmara) wind farm,--,Μαυρα Λιθαρια,"Didima Pavlidis, Mavrolitharo Pavlidis",13.2,Onshore,operating,2021,,,,,,,41.2997,23.357,exact,,Serres Regional Unit,Central Macedonia,Macedonia and Thrace,Southern Europe,Europe,L100000909680,G100000912458,RAE: ΑΔ-02453,RAE: 40791,https://www.gem.wiki/Mavra_Litharia_(Pavlides_Marmara)_wind_farm
2024/03/20,Greece,Mavri Stani Petra wind farm,--,Μαυρη Στανη-Κουλα-Κοκκινη Πετρα,,130.2,Onshore,announced,,,,,Terna Energy,Τερνα Ενεργειακη Ανωνυμη Βιομηχανικη Εμπορικη Τεχνικη Εταιρεια Α Ε,,41.1834,23.6931,exact,,Serres Municipality,Serres Regional Unit,Central Macedonia,Southern Europe,Europe,L100001004943,G100001005842,,RAE: 42301,https://www.gem.wiki/Mavri_Stani_Petra_wind_farm
2024/03/20,Greece,Mavroplayia Kastro wind farm,--,Μαυροπλαγια-Καστρο,Mavroplagia Kastro,17.2,Onshore,operating,2016,,Terna Energy,Τερνα Ενεργειακη Ανωνυμη Βιομηχανικη Εμπορικη Τεχνικη Εταιρεια Α Ε,Terna Energy,Τερνα Ενεργειακη Ανωνυμη Βιομηχανικη Εμπορικη Τεχνικη Εταιρεια Α Ε,,38.2194,23.4108,exact,Municipal Unit of Mandra,Regional Unit of West Attica,Attica,Attica,Southern Europe,Europe,L100000910930,G100000913847,RAE: ΑΔ-03397,RAE: 40544,https://www.gem.wiki/Mavroplayia_Kastro_wind_farm
2024/04/15,Greece,Mavrou Korephe wind farm,1,Μαυρου Κορυφη,,30,Onshore,announced,,,,,Terna Energy,Τερνα Ενεργειακη Ανωνυμη Βιομηχανικη Εμπορικη Τεχνικη Εταιρεια Α Ε,,35.2834,24.6784,exact,,Municipality of Rethymnon,Rethymno Regional Unit,Region of Crete,Southern Europe,Europe,L100000910303,G100000916099,,RAE: 42637,https://www.gem.wiki/Mavrou_Korephe_wind_farm
2024/04/03,Greece,Mavrou Korephe wind farm,2,Μαυρου Κορυφη,,15,Onshore,announced,,,,,Terna Energy,Τερνα Ενεργειακη Ανωνυμη Βιομηχανικη Εμπορικη Τεχνικη Εταιρεια Α Ε,,35.2834,24.6784,exact,,Municipality of Rethymnon,Rethymno Regional Unit,Region of Crete,Southern Europe,Europe,L100000910303,G100000913144,,RAE: 35720,https://www.gem.wiki/Mavrou_Korephe_wind_farm
2022/03/22,Greece,Mavrovouni Mavroplayia Panorama wind farm,1,Μαυροβουνι - Μαυροπλαγια - Πανοραμα,"Mavrovouni, Mavrouvouni",20,Onshore,operating,2011,,Terna Energy,Τερνα Ενεργειακη Ανωνυμη Βιομηχανικη Εμπορικη Τεχνικη Εταιρεια Α Ε,Terna Energy,Τερνα Ενεργειακη Ανωνυμη Βιομηχανικη Εμπορικη Τεχνικη Εταιρεια Α Ε,,38.2209,23.4283,exact,,Regional Unit of Boeotia,Central Greece,Thessaly and Central Greece,Southern Europe,Europe,L100000908021,G100000914417,RAE: 40517,,https://www.gem.wiki/Mavrovouni_Mavroplayia_Panorama_wind_farm
2022/03/22,Greece,Mavrovouni Mavroplayia Panorama wind farm,2,Μαυροβουνι - Μαυροπλαγια - Πανοραμα,"Mavrovouni, Mavrouvouni",10,Onshore,operating,2015,,Terna Energy,Τερνα Ενεργειακη Ανωνυμη Βιομηχανικη Εμπορικη Τεχνικη Εταιρεια Α Ε,Terna Energy,Τερνα Ενεργειακη Ανωνυμη Βιομηχανικη Εμπορικη Τεχνικη Εταιρεια Α Ε,,38.2209,23.4283,exact,,Regional Unit of Boeotia,Central Greece,Thessaly and Central Greece,Southern Europe,Europe,L100000908021,G100000910708,RAE: 40517,,https://www.gem.wiki/Mavrovouni_Mavroplayia_Panorama_wind_farm
2024/03/20,Greece,Megali Rachi Kroniza Kanavari wind farm II,--,Μεγαλη Ραχη - Κρονιζα - Καναβαρι,,77,Onshore,announced,,,,,WPD Hellas,WPD Αιολικη Ενεργεια,,38.2974,23.1911,exact,,Aliartos-Thespies Municipality,Regional Unit of Boeotia,Central Greece,Southern Europe,Europe,L100001004946,G100001005845,,RAE: 42890,https://www.gem.wiki/Megali_Rachi_Kroniza_Kanavari_wind_farm_II
2024/03/20,Greece,Megalo Vouno Anemomelos wind farm,--,Μεγαλο Βουνο - Ανεμομυλος,Anemomylos,12,Onshore,operating,2017,,,,Protergia,,,38.4681,23.2307,exact,,Regional Unit of Boeotia,Central Greece,Thessaly and Central Greece,Southern Europe,Europe,L100000909092,G100000911826,RAE: ΑΔ-01337,RAE: 42755,https://www.gem.wiki/Megalo_Vouno_Anemomelos_wind_farm
2024/03/20,Greece,Megalo Vouno Rethi wind farm,1,Μεγαλο Βουνο - Ρεθι,Euboea,18,Onshore,operating,2017,,,,Evia Wind Energy SA,Αιολικη Ενεργειακη Ευβοιας Α.Ε.,,38.2521,24.1794,exact,,Euboea Regional Unit,Central Greece,Thessaly and Central Greece,Southern Europe,Europe,L100000909698,G100000912478,RAE: ΑΔ-01092,RAE: 40044,https://www.gem.wiki/Megalo_Vouno_Rethi_wind_farm
2024/03/20,Greece,Megalos Prionas wind farm,--,Μεγαλος Πριωνας,,30,Onshore,announced,,,,,Terna Energy,Τερνα Ενεργειακη Ανωνυμη Βιομηχανικη Εμπορικη Τεχνικη Εταιρεια Α Ε,,35.4184,26.9879,exact,,Karpathos-Kasos Regional Unit,South Aegean,Aegean,Southern Europe,Europe,L100000913322,G100000916574,RAE: Γ-04823,RAE: 35717,https://www.gem.wiki/Megalos_Prionas_wind_farm
2024/03/20,Greece,Megalovouni wind farm,1,Μεγαλοβουνι,Megalovouni Idei,22,Onshore,operating,2011,,IdEI,Ιδιωτικη Επιχειρηση Ηλεκτρισμου Αε,IdEI SA,Ιδιωτικη Επιχειρηση Ηλεκτρισμου Αε,,41.2057,24.2858,exact,Drama,Drama Regional Unit,Eastern Macedonia and Thrace,Macedonia and Thrace,Southern Europe,Europe,L100000912092,G100000915155,RAE: ΑΔ-00658,RAE: 33563,https://www.gem.wiki/Megalovouni_wind_farm
2024/03/20,Greece,Megavouni Koukouras wind farm,--,Μεγαβουνι Κουκουρας,Garbis,18,Onshore,operating,2008,,,,,,,37.4564,22.282,exact,,Arcadia Regional Unit,Peloponnese Region,"Peloponnese, Western Greece and the Ionian",Southern Europe,Europe,L100000911161,G100000914107,RAE: ΑΔ-00390,RAE: 33833,https://www.gem.wiki/Megavouni_Koukouras_wind_farm
2024/03/20,Greece,Melia (Enel) wind farm,--,Μηλια,Kafireas,18.4,Onshore,operating,2019,,,,Enel Green Power Greece SA,Enel Green Power Hellas A.E.,,38.0601,24.4899,exact,,Euboea Regional Unit,Central Greece,Thessaly and Central Greece,Southern Europe,Europe,L100000911325,G100000914291,RAE: ΑΔ-01261,RAE: 40249,https://www.gem.wiki/Melia_(Enel)_wind_farm
2024/03/20,Greece,Melissi wind farm,--,Μελισσι,"Lafkos Melissi, Melissi WInd",24,Onshore,operating,2012,,,,,,,38.296,23.045,exact,,Regional Unit of Boeotia,Central Greece,Thessaly and Central Greece,Southern Europe,Europe,L100000912466,G100000915578,RAE: ΑΔ-00586,RAE: 38248,https://www.gem.wiki/Melissi_wind_farm
2024/03/20,Greece,Mellia wind farm,--,Μελλια,Melia,34.6,Onshore,operating,2021,,,,Vendavel Energy SA,Βενταβελ Ενεργειακη Αε,,40.2856,21.5774,exact,,Kozani Regional Unit,Western Macedonia,Epirus and Western Macedonia,Southern Europe,Europe,L100000913761,G100000917099,RAE: ΑΔ-01107,RAE: 32954,https://www.gem.wiki/Mellia_wind_farm
2024/03/20,Greece,Metalikon Kamila wind farm,--,Μεταλικον - Καμηλα - Ασπιδα,,35,Onshore,announced,,,,,Pindos Energy SA,Pindo Wind M.I.K.E.,,41.2618,25.5939,exact,,Rodopi Regional Unit,Eastern Macedonia and Thrace,Macedonia and Thrace,Southern Europe,Europe,L100000920318,G100000924976,RAE: Γ-014847,RAE: 41742,https://www.gem.wiki/Metalikon_Kamila_wind_farm
2024/03/20,Greece,Mikronoros wind farm,--,Μικρονορος,Makrynoros,33.6,Onshore,operating,2022,,,,Iberdrola SA,,,41.3312,25.8456,exact,,Rodopi Regional Unit,Eastern Macedonia and Thrace,Macedonia and Thrace,Southern Europe,Europe,L100000913667,G100000916992,RAE: ΑΔ-03296,RAE: 36822,https://www.gem.wiki/Mikronoros_wind_farm
2024/04/21,Greece,Milia (Kaphereos Evia) wind farm,--,Μηλια,Karystia wind project,18,Onshore,operating,2023,,,,Terna Energy,Τερνα Ενεργειακη Ανωνυμη Βιομηχανικη Εμπορικη Τεχνικη Εταιρεια Α Ε,,38.0584,24.5183,exact,,Euboea Regional Unit,Central Greece,Thessaly and Central Greece,Southern Europe,Europe,L100000911162,G100000914108,RAE: ΑΔ-01265,RAE: 37516,https://www.gem.wiki/Milia_(Kaphereos_Evia)_wind_farm
2024/04/21,Greece,Milza wind farm,--,Μιλζα,Karystia wind project,18,Onshore,operating,2023,,,,Terna Energy,Τερνα Ενεργειακη Ανωνυμη Βιομηχανικη Εμπορικη Τεχνικη Εταιρεια Α Ε,,38.0835,24.5539,exact,,Euboea Regional Unit,Central Greece,Thessaly and Central Greece,Southern Europe,Europe,L100000911166,G100000914113,RAE: ΑΔ-02482,RAE: 32935,https://www.gem.wiki/Milza_wind_farm
2024/03/20,Greece,Modacharake wind farm,--,Μονταχαρακη,,30,Onshore,announced,,,,,Servounio Energy SA,Ενεργειακη Σερβουνιου Α.Ε.,,37.8964,24.947,exact,,Andros Regional Unit,South Aegean,Aegean,Southern Europe,Europe,L100000913326,G100000916579,RAE: Γ-04484,RAE: 38704,https://www.gem.wiki/Modacharake_wind_farm
2024/04/21,Greece,Molizeza wind farm,1,Μολιζεζα Ι,Karystia wind project,18,Onshore,operating,2023,,,,Terna Energy,Τερνα Ενεργειακη Ανωνυμη Βιομηχανικη Εμπορικη Τεχνικη Εταιρεια Α Ε,,38.1232,24.5039,exact,,Euboea Regional Unit,Central Greece,Thessaly and Central Greece,Southern Europe,Europe,L100000911169,G100000914116,RAE: ΑΔ-02944,RAE: 40986,https://www.gem.wiki/Molizeza_wind_farm
2024/03/20,Greece,Monasteri wind farm,2,Μοναστηρι,Monastiri II,10.8,Onshore,operating,2004,,,,Enel Green Power Greece SA,Enel Green Power Hellas A.E.,,41.2022,25.7819,exact,,Rodopi Regional Unit,Eastern Macedonia and Thrace,Macedonia and Thrace,Southern Europe,Europe,L100000908375,G100000911073,RAE: ΑΔ-00368,RAE: 40236,https://www.gem.wiki/Monasteri_wind_farm
2024/03/20,Greece,Moungoulios wind farm,--,Μουγγουλιος,Mougolios,16.5,Onshore,operating,2017,,Terna Energy,Τερνα Ενεργειακη Ανωνυμη Βιομηχανικη Εμπορικη Τεχνικη Εταιρεια Α Ε,Terna Energy,Τερνα Ενεργειακη Ανωνυμη Βιομηχανικη Εμπορικη Τεχνικη Εταιρεια Α Ε,,38.1712,23.6218,exact,,Regional Unit of Boeotia,Central Greece,Thessaly and Central Greece,Southern Europe,Europe,L100000910744,G100000913637,RAE: ΑΔ-03403,RAE: 40543,https://www.gem.wiki/Moungoulios_wind_farm
2024/04/21,Greece,Mouriza Petra Megale wind farm,--,Μουριζα-Πετρα Μεγαλη-Βρανουλι,Karystia wind project,21.6,Onshore,operating,2023,,,,Terna Energy,Τερνα Ενεργειακη Ανωνυμη Βιομηχανικη Εμπορικη Τεχνικη Εταιρεια Α Ε,,38.0792,24.5369,exact,,Euboea Regional Unit,Central Greece,Thessaly and Central Greece,Southern Europe,Europe,L100000911994,G100000915043,RAE: ΑΔ-01268,RAE: 40876,https://www.gem.wiki/Mouriza_Petra_Megale_wind_farm
2024/03/20,Greece,Myges - Mavrovouni wind farm,--,Μυγες - Μαυροβουνι,,63,Onshore,announced,,,,,,,,37.9677,23.1321,exact,,Loutraki-Perachora-Agioi Theodoroi Municipality,Corinthia Regional Unit,Peloponnese Region,Southern Europe,Europe,L100001004961,G100001005860,,RAE: 220,https://www.gem.wiki/Myges_-_Mavrovouni_wind_farm
2024/03/20,Greece,Mytikas (Anaptyxiake Wind) wind farm,--,Μυτικας,Mitikas,10,Onshore,operating,2010,,,,Anaptyxiake Wind and CO Phthiotida Single Member SA,Αιολος Αναπτυξιακη & Σια Φθιωτιδα M. A.Ε.,,38.589,23.1855,exact,,Phthiotis Regional Unit,Central Greece,Thessaly and Central Greece,Southern Europe,Europe,L100000908049,G100000910736,RAE: ΑΔ-00903,RAE: 36707,https://www.gem.wiki/Mytikas_(Anaptyxiake_Wind)_wind_farm
2024/03/20,Greece,Mytoula Kephali wind farm,--,Μυτουλα - Κεφαλι,"Mytoula, Mytoula-Kefali",38,Onshore,operating,2006,,Terna Energy,Τερνα Ενεργειακη Ανωνυμη Βιομηχανικη Εμπορικη Τεχνικη Εταιρεια Α Ε,Terna Energy,Τερνα Ενεργειακη Ανωνυμη Βιομηχανικη Εμπορικη Τεχνικη Εταιρεια Α Ε,,41.0934,25.9211,exact,,Evros Regional Unit,Eastern Macedonia and Thrace,Macedonia and Thrace,Southern Europe,Europe,L100000914085,G100000917469,RAE: ΑΔ-00200,RAE: 40532,https://www.gem.wiki/Mytoula_Kephali_wind_farm
2024/03/20,Greece,Nesida Ayios Georgios wind farm,1,Νησιδα Αγιος Γεωργιος,"Agios Georgios, St. George Island",48.3,Onshore,operating,2016,,Terna Energy,Τερνα Ενεργειακη Ανωνυμη Βιομηχανικη Εμπορικη Τεχνικη Εταιρεια Α Ε,Terna Energy,Τερνα Ενεργειακη Ανωνυμη Βιομηχανικη Εμπορικη Τεχνικη Εταιρεια Α Ε,,37.4707,23.9307,exact,Lavreotiki Municipal Unit,Regional Unit of Islands,Attica,Attica,Southern Europe,Europe,L100000912579,G100000918268,"RAE: ΑΔ-00911,RAE: ΑΔ-00989",RAE: 38667,https://www.gem.wiki/Nesida_Ayios_Georgios_wind_farm
2024/03/20,Greece,Nesida Ayios Georgios wind farm,2,Νησιδα Αγιος Γεωργιος,"Agios Georgios, St. George Island",24.9,Onshore,operating,2016,,Terna Energy,Τερνα Ενεργειακη Ανωνυμη Βιομηχανικη Εμπορικη Τεχνικη Εταιρεια Α Ε,Terna Energy,Τερνα Ενεργειακη Ανωνυμη Βιομηχανικη Εμπορικη Τεχνικη Εταιρεια Α Ε,,37.4876,23.9036,exact,Lavreotiki Municipal Unit,Regional Unit of Islands,Attica,Attica,Southern Europe,Europe,L100000912579,G100000915709,"RAE: ΑΔ-00911,RAE: ΑΔ-00989",RAE: 33825,https://www.gem.wiki/Nesida_Ayios_Georgios_wind_farm
2025/01/07,Greece,Omalies wind farm,1,"Καφηρέας, Ομαλιες",Karystia wind project,30,Onshore,operating,2023,,,,Terna Energy,Τερνα Ενεργειακη Ανωνυμη Βιομηχανικη Εμπορικη Τεχνικη Εταιρεια Α Ε,,38.046,24.4948,exact,,Karystos Municipality,Euboea Regional Unit,Central Greece,Southern Europe,Europe,L100000910331,G100000916594,,RAE: 36729,https://www.gem.wiki/Omalies_wind_farm
2025/01/07,Greece,Omalies wind farm,2,"Καφηρέας, Ομαλιες",Karystia wind project,15,Onshore,operating,2023,,,,Terna Energy,Τερνα Ενεργειακη Ανωνυμη Βιομηχανικη Εμπορικη Τεχνικη Εταιρεια Α Ε,,38.046,24.4948,exact,,Karystos Municipality,Euboea Regional Unit,Central Greece,Southern Europe,Europe,L100000910331,G100000913174,,RAE: 34662,https://www.gem.wiki/Omalies_wind_farm
2024/03/20,Greece,Orpheas Eptadendros wind farm,--,Ορφεας - Επταδενδρος,"Orfeas-Eptadendros, Eptadendros",28.8,Onshore,operating,2019,,,,Ellaktor SA,Ελλακτωρ Α.Ε.,,41.0545,25.8599,exact,,Evros Regional Unit,Eastern Macedonia and Thrace,Macedonia and Thrace,Southern Europe,Europe,L100000913104,G100000916320,RAE: ΑΔ-03443,RAE: 39817,https://www.gem.wiki/Orpheas_Eptadendros_wind_farm
2024/03/20,Greece,Ortholithi wind farm,--,Ορθολιθι,,20.7,Onshore,operating,2015,,,,Ellaktor SA,Ελλακτωρ Α.Ε.,,37.5386,23.2662,exact,Municipal Unit of Troizinia,Regional Unit of Islands,Attica,Attica,Southern Europe,Europe,L100000911651,G100000914654,RAE: ΑΔ-00871,RAE: 40042,https://www.gem.wiki/Ortholithi_wind_farm
2024/03/20,Greece,Oxe Kephali wind farm,--,Οξυ Κεφαλι,,39,Onshore,announced,,,,,Terna Energy,Τερνα Ενεργειακη Ανωνυμη Βιομηχανικη Εμπορικη Τεχνικη Εταιρεια Α Ε,,35.1178,25.0864,exact,Nikos Kazantzakis Municipal Unit,Heraklion Regional Unit,Region of Crete,Region of Crete,Southern Europe,Europe,L100000914145,G100000917539,RAE: Γ-04628,RAE: 35089,https://www.gem.wiki/Oxe_Kephali_wind_farm
2024/03/20,Greece,Palarrache Palioplatanos wind farm,--,Παλαρραχη - Παλιοπλατανος - Πρ. Ηλιας,,10,Onshore,operating,2021,,,,Vatora Energy SA,Vatora Ενεργεια Α.Ε.,,38.403,21.7326,exact,Municipal Unit of Antirrio,Aetolia-Acarnania Regional Unit,Western Greece,"Peloponnese, Western Greece and the Ionian",Southern Europe,Europe,L100000908083,G100000910771,RAE: ΑΔ-02743,RAE: 40285,https://www.gem.wiki/Palarrache_Palioplatanos_wind_farm
2024/03/20,Greece,Paliokastro Ypias Mavro Vouno wind farm,--,"Μαυρο Βουνο, Γρια, Παλιοκαστρο, Εριντος, Γυπιας, Χαλασματα",,117,Onshore,announced,,,,,Public Power Corporation of Greece (PPC),Δεη Ανανεωσιμες Αε,,36.0099,27.793,exact,,Rhodes Regional Unit,South Aegean,Aegean,Southern Europe,Europe,L100000915781,G100000919508,RAE: Γ-05461,RAE: 35782,https://www.gem.wiki/Paliokastro_Ypias_Mavro_Vouno_wind_farm
2024/03/20,Greece,Paliopergos wind farm,--,Παλιοπυργος,,13.8,Onshore,operating,2020,,,,Enel Green Power Greece SA,Enel Green Power Hellas A.E.,,38.021,24.567,exact,,Euboea Regional Unit,Central Greece,Thessaly and Central Greece,Southern Europe,Europe,L100000909765,G100000912547,RAE: ΑΔ-00981,RAE: 38662,https://www.gem.wiki/Paliopergos_wind_farm
2024/03/20,Greece,Panachaikou wind farm,1,Παναχαϊκου,"Panachaiko (Phase 1), Panachaiko 2 (Phase 2), Patras Panachaikou (Phase 1)",34.8,Onshore,operating,2006,,,,Cubico Sustainable Investments,,,38.2526,21.871,exact,,Achaea Regional Unit,Western Greece,"Peloponnese, Western Greece and the Ionian",Southern Europe,Europe,L100000909708,G100000917104,"RAE: ΑΔ-00811,RAE: ΑΔ-00372",RAE: 39996,https://www.gem.wiki/Panachaikou_wind_farm
2024/03/20,Greece,Panachaikou wind farm,2,Παναχαϊκου,"Panachaiko (Phase 1), Panachaiko 2 (Phase 2), Patras Panachaikou (Phase 1)",13.6,Onshore,operating,2009,,,,Acciona SA; ENTEKA,,,38.2175,21.8694,exact,,Achaea Regional Unit,Western Greece,"Peloponnese, Western Greece and the Ionian",Southern Europe,Europe,L100000909708,G100000912488,"RAE: ΑΔ-00811,RAE: ΑΔ-00372",RAE: 40009,https://www.gem.wiki/Panachaikou_wind_farm
2024/03/20,Greece,Panayia Soumela wind farm,--,Παναγια Σουμελα,Panaghia Soumela,14,Onshore,operating,2011,,Enel Green Power,,Enel Green Power Greece SA,Enel Green Power Hellas A.E.,,40.4212,22.1075,exact,,Imathia Regional Unit,Central Macedonia,Macedonia and Thrace,Southern Europe,Europe,L100000909966,G100000912771,RAE: ΑΔ-00618,RAE: 40243,https://www.gem.wiki/Panayia_Soumela_wind_farm
2024/03/20,Greece,Paralia Zarakes wind farm,2,Παραλια Ζαρακες,,16,Onshore,operating,2020,,,,,,,38.3252,24.1972,exact,,Euboea Regional Unit,Central Greece,Thessaly and Central Greece,Southern Europe,Europe,L100000910615,G100000913497,RAE: ΑΔ-00472,RAE: 40283,https://www.gem.wiki/Paralia_Zarakes_wind_farm
2024/03/20,Greece,Parthenion wind farm,--,Παρθενιον,Parthenio,26.4,Onshore,operating,2017,,,,Parthenio Wind Park SA,Aioλικο Παρκο Παρθενιο Α.Ε.,,37.4662,22.541,exact,Municipal Unit of Achladokampos,Arcadia Regional Unit,Peloponnese Region,"Peloponnese, Western Greece and the Ionian",Southern Europe,Europe,L100000912867,G100000916041,RAE: ΑΔ-00902,RAE: 37771,https://www.gem.wiki/Parthenion_wind_farm
2024/03/20,Greece,Pateras (Seimens Gamesa) wind farm,--,Πατερας,,22,Onshore,announced,,,,,Siemens Gamesa Renewable Energy SA,Siemens Gamesa Renewable Energy A.E.,,38.1061,23.3603,exact,Municipal Unit of Mandra,Regional Unit of West Attica,Attica,Attica,Southern Europe,Europe,L100000920320,G100000924978,RAE: 00130,RAE: 34497,https://www.gem.wiki/Pateras_(Seimens_Gamesa)_wind_farm
2024/03/20,Greece,Pateras wind farm,--,Πατερας,,36,Onshore,announced,,,,,Orpheus Renewable Energy Sources SA,Ορφεας_Απε_Αε,,38.0959,23.3512,exact,Municipal Unit of Megara,Regional Unit of West Attica,Attica,Attica,Southern Europe,Europe,L100000913921,G100000917283,RAE: Γ-012406,RAE: 38573,https://www.gem.wiki/Pateras_wind_farm
2024/03/20,Greece,Patriarches wind farm,--,Πατριαρχης,Patriarchis,46.3,Onshore,operating,2004,,,,Rokas Aeoliki North Hellas II Ave,Ροκας Αιολικη Βορειος Ελλας Ιι Αβεε,,41.286,25.9055,exact,,Rodopi Regional Unit,Eastern Macedonia and Thrace,Macedonia and Thrace,Southern Europe,Europe,L100000914242,G100000917654,RAE: ΑΔ-00261,RAE: 40226,https://www.gem.wiki/Patriarches_wind_farm
2024/03/20,Greece,Pefkias wind farm,--,Πευκιας,,10.4,Onshore,operating,2018,,,,,,,38.2661,22.9434,exact,,Regional Unit of Boeotia,Central Greece,Thessaly and Central Greece,Southern Europe,Europe,L100000908323,G100000911018,RAE: ΑΔ-03369,RAE: 41683,https://www.gem.wiki/Pefkias_wind_farm
2024/03/20,Greece,Perdikokorephe wind farm,--,Περδικοκορυφη,Perdikokorifi,14.4,Onshore,operating,2006,,Terna Energy,Τερνα Ενεργειακη Ανωνυμη Βιομηχανικη Εμπορικη Τεχνικη Εταιρεια Α Ε,Terna Energy,Τερνα Ενεργειακη Ανωνυμη Βιομηχανικη Εμπορικη Τεχνικη Εταιρεια Α Ε,,35.1506,24.981,exact,Agia Varvava Municipal Unit,Heraklion Regional Unit,Region of Crete,Region of Crete,Southern Europe,Europe,L100000910131,G100000912954,RAE: ΑΔ-00581,RAE: 40536,https://www.gem.wiki/Perdikokorephe_wind_farm
2022/03/22,Greece,Perdikovouni Elikonos wind farm,1,Περδικοβουνι Ελικωνος,Perdikovouni (Phase 1),24,Onshore,operating,2007,,,,Terna Energy,Τερνα Ενεργειακη Ανωνυμη Βιομηχανικη Εμπορικη Τεχνικη Εταιρεια Α Ε,,38.3417,22.9433,exact,,Regional Unit of Boeotia,Central Greece,Thessaly and Central Greece,Southern Europe,Europe,L100000912490,G100000915606,RAE: 42408,,https://www.gem.wiki/Perdikovouni_Elikonos_wind_farm
2022/03/22,Greece,Perdikovouni Elikonos wind farm,2,Περδικοβουνι Ελικωνος,Perdikovouni (Phase 1),24,Onshore,operating,2013,,,,Terna Energy,Τερνα Ενεργειακη Ανωνυμη Βιομηχανικη Εμπορικη Τεχνικη Εταιρεια Α Ε,,38.3417,22.9433,exact,,Regional Unit of Boeotia,Central Greece,Thessaly and Central Greece,Southern Europe,Europe,L100000912490,G100000915607,RAE: 42408,,https://www.gem.wiki/Perdikovouni_Elikonos_wind_farm
2024/03/20,Greece,Pergade wind farm,--,Περγαντη,,41.8,Onshore,operating,2019,,,,,,,38.8017,20.9902,exact,Municipal Unit of Anaktorio,Aetolia-Acarnania Regional Unit,Western Greece,"Peloponnese, Western Greece and the Ionian",Southern Europe,Europe,L100000914320,G100000917749,RAE: ΑΔ-00926,RAE: 39143,https://www.gem.wiki/Pergade_wind_farm
2024/03/20,Greece,Petalas Thyamon Oros wind farm,--,Πεταλας (Θυαμον Ορος),Petalas,48,Onshore,operating,2018,,,,Spider Energy SA,Spider Ενεργειακη Ανωνυμη Εταιρια,,38.8329,21.199,exact,Municipal Unit of Amphilohia,Aetolia-Acarnania Regional Unit,Western Greece,"Peloponnese, Western Greece and the Ionian",Southern Europe,Europe,L100000914723,G100000918217,RAE: ΑΔ-01886,RAE: 36876,https://www.gem.wiki/Petalas_Thyamon_Oros_wind_farm
2024/03/20,Greece,Phadaros wind farm,1&2,Φανταρος,,20.7,Onshore,operating,2017,,,,,,,41.3026,25.6891,exact,,Kardzhali,,,Southern Europe,Europe,L100000911785,G100000914807,RAE: ΑΔ-03295,RAE: 40342,https://www.gem.wiki/Phadaros_wind_farm
2024/03/20,Greece,Phlabouro wind farm,--,Φλαμπουρο,Flampouro,27.6,Onshore,operating,2018,,,,Eren Hellas,Eren Ελλας,,41.215,25.6445,exact,,Rodopi Regional Unit,Eastern Macedonia and Thrace,Macedonia and Thrace,Southern Europe,Europe,L100000912985,G100000916182,RAE: ΑΔ-03375,RAE: 40354,https://www.gem.wiki/Phlabouro_wind_farm
2024/03/20,Greece,Phrangaki (Greek Windpower) wind farm,--,Φραγκακι,Frangaki,15,Onshore,operating,2022,,,,Intrakat,INTRAKAT ΑΝΩΝΥΜΗ ΕΤΑΙΡΕΙΑ ΤΕΧΝΙΚΩΝ ΚΑΙ ΕΝΕΡΓΕΙΑΚΩΝ ΕΡΓΩΝ,,37.7276,24.9549,exact,,Andros Regional Unit,South Aegean,Aegean,Southern Europe,Europe,L100000910345,G100000913190,RAE: ΑΔ-01036,RAE: 36706,https://www.gem.wiki/Phrangaki_(Greek_Windpower)_wind_farm
2024/03/20,Greece,Pithanites wind farm,--,Πιθανιτης,Pithanitis,11.7,Onshore,operating,2005,,,,Wind Park of Rhodes SA,Αιολικο Παρκο Ροδου Α.Ε.,,36.1903,27.8417,exact,,Rhodes Regional Unit,South Aegean,Aegean,Southern Europe,Europe,L100000908682,G100000911395,RAE: ΑΔ-00087,RAE: 39284,https://www.gem.wiki/Pithanites_wind_farm
2024/03/20,Greece,Plakokeratia Metatou wind farm,--,Πλακοκερατια Μητατου,"Modi (Plakokeratia), Xirolimni, Plakokeratia, Modi",10.2,Onshore,operating,1998,,,,Rokas Aeoliki North Hellas II Ave,Ροκας Αιολικη Βορειος Ελλας Ιι Αβεε,,35.1746,26.208,exact,Itanos Municipal Unit,Lasithi Regional Unit,Region of Crete,Region of Crete,Southern Europe,Europe,L100000908283,G100000910977,RAE: ΑΔ-00080,RAE: 42345,https://www.gem.wiki/Plakokeratia_Metatou_wind_farm
2024/03/20,Greece,Platanaki wind farm,--,Πλατανακι,Karystia wind project,36,Onshore,announced,,,,,Terna Energy,Τερνα Ενεργειακη Ανωνυμη Βιομηχανικη Εμπορικη Τεχνικη Εταιρεια Α Ε,,38.0472,24.5209,exact,,Euboea Regional Unit,Central Greece,Thessaly and Central Greece,Southern Europe,Europe,L100000913926,G100000917290,RAE: Γ-05085,RAE: 38705,https://www.gem.wiki/Platanaki_wind_farm
2024/03/20,Greece,Platanistos wind farm,--,Πλατανιστος,Kafireas,29.9,Onshore,operating,2019,,,,Enel Green Power Greece SA,Enel Green Power Hellas A.E.,,38.0236,24.4958,exact,,Euboea Regional Unit,Central Greece,Thessaly and Central Greece,Southern Europe,Europe,L100000913195,G100000916427,RAE: ΑΔ-01259,RAE: 32916,https://www.gem.wiki/Platanistos_wind_farm
2024/03/20,Greece,Platanos (Enel) wind farm,--,Πλατανος,Kafireas,13.8,Onshore,operating,2019,,,,Enel Green Power Greece SA,Enel Green Power Hellas A.E.,,38.0946,24.449,exact,,Euboea Regional Unit,Central Greece,Thessaly and Central Greece,Southern Europe,Europe,L100000909769,G100000912551,RAE: ΑΔ-01257,RAE: 40251,https://www.gem.wiki/Platanos_(Enel)_wind_farm
2024/03/20,Greece,Playia Pseloma wind farm,--,Πλαγια-Ψηλωμα,,14.9,Onshore,operating,2017,,,,Terna Energy,Τερνα Ενεργειακη Ανωνυμη Βιομηχανικη Εμπορικη Τεχνικη Εταιρεια Α Ε,,38.1628,23.5493,exact,,Regional Unit of Boeotia,Central Greece,Thessaly and Central Greece,Southern Europe,Europe,L100000910143,G100000912968,RAE: ΑΔ-03402,RAE: 40545,https://www.gem.wiki/Playia_Pseloma_wind_farm
2024/03/20,Greece,Polemistis wind farm,--,Πολεμιστης,,44,Onshore,announced,,,,,WPD Hellas,WPD Αιολικη Ενεργεια,,41.3018,25.5758,exact,,Komotini Municipality,Rodopi Regional Unit,Eastern Macedonia and Thrace,Southern Europe,Europe,L100000920323,G100000924981,RAE: ΑΔ-010573,"RAE: 41785,RAE: 42891",https://www.gem.wiki/Polemistis_wind_farm
2022/03/22,Greece,Portes Kokkinochoma wind farm,1,Πορτες Κοκκινοχωμα,,10,Onshore,operating,2017,,,,Jasper Aoliki - Loutsa EPE,Τζασπερ Αιολικη - Λουτσα Ε.Π.Ε.,,38.0595,24.4216,exact,,Euboea Regional Unit,Central Greece,Thessaly and Central Greece,Southern Europe,Europe,L100000908285,G100000910980,RAE: 40364,,https://www.gem.wiki/Portes_Kokkinochoma_wind_farm
2022/03/22,Greece,Portes Kokkinochoma wind farm,2,Πορτες Κοκκινοχωμα,,14,Onshore,operating,2020,,,,Jasper Aoliki - Loutsa EPE,Τζασπερ Αιολικη - Λουτσα Ε.Π.Ε.,,38.0595,24.4216,exact,,Euboea Regional Unit,Central Greece,Thessaly and Central Greece,Southern Europe,Europe,L100000908285,G100000912945,RAE: 40364,,https://www.gem.wiki/Portes_Kokkinochoma_wind_farm
2024/03/20,Greece,Pouda wind farm,--,Πουντα,Evia Pouda,11.2,Onshore,operating,2020,,,,,,,38.5244,24.2214,exact,,Euboea Regional Unit,Central Greece,Thessaly and Central Greece,Southern Europe,Europe,L100000908565,G100000911270,RAE: ΑΔ-00411,RAE: 36375,https://www.gem.wiki/Pouda_wind_farm
2024/03/20,Greece,Pournari wind farm,--,Πουρναρι,,28.8,Onshore,operating,2019,,,,Viotia Aiolos LLC,Viotia Aiolos Μονοπροσωπη Ανωνυμη Εταιρεια Παραγωγης & Εκμεταλλευσης Ενεργειας,,38.3082,22.9837,exact,,Regional Unit of Boeotia,Central Greece,Thessaly and Central Greece,Southern Europe,Europe,L100000913105,G100000916321,RAE: ΑΔ-03036,RAE: 40320,https://www.gem.wiki/Pournari_wind_farm
2024/04/21,Greece,Praro wind farm,--,Πραρο,Karystia wind project,36,Onshore,operating,2023,,,,Terna Energy,Τερνα Ενεργειακη Ανωνυμη Βιομηχανικη Εμπορικη Τεχνικη Εταιρεια Α Ε,,38.0954,24.5133,exact,,Euboea Regional Unit,Central Greece,Thessaly and Central Greece,Southern Europe,Europe,L100000913927,G100000917291,RAE: ΑΔ-02489,RAE: 36723,https://www.gem.wiki/Praro_wind_farm
2024/03/20,Greece,Prophetes Ilias (Arinomario) wind farm,--,Προφητης Ηλιας,,14.4,Onshore,operating,2019,,,,Arinomario Ltd,Arinomario Limited,,41.0379,25.9868,exact,,Evros Regional Unit,Eastern Macedonia and Thrace,Macedonia and Thrace,Southern Europe,Europe,L100000910125,G100000912947,RAE: ΑΔ-03464,RAE: 40770,https://www.gem.wiki/Prophetes_Ilias_(Arinomario)_wind_farm
2024/03/20,Greece,Prophetes Ilias (Peloponnese Wind Energy) wind farm,--,Προφητης Ηλιας,"Profitis Ilias Argo, Profitis Ilias II",42,Onshore,operating,2006,,,,Terna Energy,Τερνα Ενεργειακη Ανωνυμη Βιομηχανικη Εμπορικη Τεχνικη Εταιρεια Α Ε,,37.5354,22.5962,exact,Municipal Unit of Achladokampos,Argolis Regional Unit,Peloponnese Region,"Peloponnese, Western Greece and the Ionian",Southern Europe,Europe,L100000913353,G100000916612,RAE: ΑΔ-00555,RAE: 42804,https://www.gem.wiki/Prophetes_Ilias_(Peloponnese_Wind_Energy)_wind_farm
2024/03/20,Greece,Prophetes Ilias (Rokas Voreios Wind) wind farm,--,Προφητης Ηλιας,,40,Onshore,announced,,,,,Rokas Aeoliki North Hellas II Ave,Ροκας Αιολικη Βορειος Ελλας Ιι Αβεε,,38.5888,25.5474,exact,,Chios Regional Unit,Northern Aegean,Aegean,Southern Europe,Europe,L100000914244,G100000917657,RAE: Γ-05213,RAE: 35757,https://www.gem.wiki/Prophetes_Ilias_(Rokas_Voreios_Wind)_wind_farm
2024/03/20,Greece,Prophetes Ilias (Sagias Wind) wind farm,--,Προφητης Ηλιας,,25.3,Onshore,operating,2019,,,,Sagias Wind Park SA,Αιολικο Παρκο Σαγιας Α.Ε.,,36.5636,22.4322,exact,Oitylos Municipal Unit,Laconia Regional Unit,Peloponnese Region,"Peloponnese, Western Greece and the Ionian",Southern Europe,Europe,L100000910708,G100000913599,RAE: ΑΔ-01733,RAE: 36369,https://www.gem.wiki/Prophetes_Ilias_(Sagias_Wind)_wind_farm
2024/03/20,Greece,Psele Rache Labousa wind farm,--,Ψηλη Ραχη Λαμπουσα,Lambousa,16.1,Onshore,operating,2013,,,,Ellaktor SA,Ελλακτωρ Α.Ε.,,37.4683,23.3869,exact,Municipal Unit of Troizinia,Regional Unit of Islands,Attica,Attica,Southern Europe,Europe,L100000910709,G100000913600,RAE: ΑΔ-00215,RAE: 40601,https://www.gem.wiki/Psele_Rache_Labousa_wind_farm
2024/03/20,Greece,Pselo Lithari Kododiasela wind farm,--,Ψηλο Λιθαρι - Κοντοδιασελα,Ktenias,23,Onshore,operating,2009,,,,Ellaktor SA,Ελλακτωρ Α.Ε.,,37.5534,22.5698,exact,Municipal Unit of Achladokampos,Argolis Regional Unit,Peloponnese Region,"Peloponnese, Western Greece and the Ionian",Southern Europe,Europe,L100000912261,G100000915349,RAE: ΑΔ-00928,RAE: 37527,https://www.gem.wiki/Pselo_Lithari_Kododiasela_wind_farm
2024/03/20,Greece,Ptoon Pyrgos wind farm,--,Πτωον - Πυργος,Ptoon,40,Onshore,operating,2016,,Siemens Gamesa Renewable Energy,Siemens Gamesa Renewable Energy A.E.,Eren Hellas,Eren Ελλας,,38.477,23.3149,exact,,Euboea Regional Unit,Central Greece,Thessaly and Central Greece,Southern Europe,Europe,L100000914245,G100000917658,RAE: ΑΔ-00414,RAE: 40967,https://www.gem.wiki/Ptoon_Pyrgos_wind_farm
2024/03/20,Greece,Pyramida Chelona wind farm,--,Πυραμιδα - Χελωνα,,18.8,Onshore,operating,2020,,,,Vector Wind Desphinas SA,Vector Aιολικη Δεσφινας Ανωνυμη Εταιρεια,,38.3408,22.5577,exact,Municipal Unit of Desfina,Regional Unit of Phocis,Central Greece,Thessaly and Central Greece,Southern Europe,Europe,L100000911350,G100000914317,RAE: ΑΔ-00519,RAE: 40375,https://www.gem.wiki/Pyramida_Chelona_wind_farm
2024/03/20,Greece,Pyrgari (Rokas) wind farm,1,Πυργαρι,Pyrgari Distron (Phase 1),16,Onshore,operating,2020,,,,Rokas Aeoliki North Hellas II Ave,Ροκας Αιολικη Βορειος Ελλας Ιι Αβεε,,38.3604,23.2428,exact,Municipal Unit of Thebes,Regional Unit of Boeotia,Central Greece,Thessaly and Central Greece,Southern Europe,Europe,L100000910631,G100000913514,"RAE: ΑΔ-06418,RAE: ΑΔ-00732",RAE: 34294,https://www.gem.wiki/Pyrgari_(Rokas)_wind_farm
2024/03/20,Greece,Pyrgia Troullia wind farm,--,"Αποσελεμης, Πυργια, Τρουλλια",,48,Onshore,announced,,,,,Terna Energy,Τερνα Ενεργειακη Ανωνυμη Βιομηχανικη Εμπορικη Τεχνικη Εταιρεια Α Ε,,35.2973,25.3324,exact,Gouves Municipal Unit,Heraklion Regional Unit,Region of Crete,Region of Crete,Southern Europe,Europe,L100000914733,G100000918228,RAE: Γ-05322,RAE: 35771,https://www.gem.wiki/Pyrgia_Troullia_wind_farm
2024/03/20,Greece,Pyrgos (Evia Pyrgos) wind farm,--,Πυργος,Evia Pyrgos,15.3,Onshore,operating,2019,,,,,,,38.1221,24.3967,exact,,Euboea Regional Unit,Central Greece,Thessaly and Central Greece,Southern Europe,Europe,L100000910442,G100000913304,RAE: ΑΔ-00453,RAE: 39967,https://www.gem.wiki/Pyrgos_(Evia_Pyrgos)_wind_farm
2024/03/20,Greece,Rache Loutsa Rache Gione wind farm,--,Ραχη Λουτσa - Ραχη Γκιωνη,Rachi-Zaraka,10.2,Onshore,operating,2009,,,,Zaraka Wind SA,Αιολικη Ζαρακα Ραχη Γκιωνη ΑΕ,,36.8945,22.9089,exact,,Laconia Regional Unit,Peloponnese Region,"Peloponnese, Western Greece and the Ionian",Southern Europe,Europe,L100000908286,G100000910981,RAE: ΑΔ-00288,RAE: 40300,https://www.gem.wiki/Rache_Loutsa_Rache_Gione_wind_farm
2024/03/20,Greece,Rache Phlamouria wind farm,--,Ραχη - Φλαμουρια,Flamouria,18,Onshore,operating,2021,,,,Taff Prime Develop SA,Taff Prime Develop,,40.1196,22.0189,exact,,Kozani Regional Unit,Western Macedonia,Epirus and Western Macedonia,Southern Europe,Europe,L100000911209,G100000914161,RAE: ΑΔ-01999,RAE: 42434,https://www.gem.wiki/Rache_Phlamouria_wind_farm
2024/03/20,Greece,Rachoula Paschalies wind farm,--,Ραχουλα - Πασχαλιες,Rachoula-Pashalies,44.6,Onshore,operating,2011,,Terna Energy,Τερνα Ενεργειακη Ανωνυμη Βιομηχανικη Εμπορικη Τεχνικη Εταιρεια Α Ε,Terna Energy,Τερνα Ενεργειακη Ανωνυμη Βιομηχανικη Εμπορικη Τεχνικη Εταιρεια Α Ε,,38.2395,23.5099,exact,,Regional Unit of Boeotia,Central Greece,Thessaly and Central Greece,Southern Europe,Europe,L100000913357,G100000916618,RAE: ΑΔ-00354,RAE: 33837,https://www.gem.wiki/Rachoula_Paschalies_wind_farm
2024/04/17,Greece,Rokani Kapha wind farm,--,Ροκανι - Καφα,,18,Onshore,operating,2023,,,,Thalia Energy,Θαλεια Ενεργειακη ΜΙΚΕ,,38.219,23.5202,exact,,Regional Unit of Boeotia,Central Greece,Thessaly and Central Greece,Southern Europe,Europe,L100000911213,G100000914166,RAE: ΑΔ-03712,RAE: 36952,https://www.gem.wiki/Rokani_Kapha_wind_farm
2024/03/20,Greece,Sabales wind farm,--,Σαμπαλες,,18,Onshore,operating,2011,,,,Aderes Wind SA,Αιολικη Αδερες Α.Ε.,,37.477,23.3027,exact,Municipal Unit of Ermioni,Argolis Regional Unit,Peloponnese Region,"Peloponnese, Western Greece and the Ionian",Southern Europe,Europe,L100000911217,G100000914170,RAE: ΑΔ-00895,RAE: 37493,https://www.gem.wiki/Sabales_wind_farm
